{
"type": "FeatureCollection",
"crs": { "type": "name", "properties": { "name": "urn:ogc:def:crs:OGC:1.3:CRS84" } },
"features": [
{ "type": "Feature", "properties": { "STAID": "06428500", "STANAME": "BELLE FOURCHE R AT WY-SD STATE LINE", "CLASS": "Non-ref", "AGGECOREGI": "WestPlains", "DRAIN_SQKM": 8381.406, "HUC02": "10U", "LAT_GAGE": 44.749707, "LNG_GAGE": -104.047435, "STATE": "SD", "HCDN_2009": null, "ACTIVE09": "yes", "FLYRS1900": 62.0, "FLYRS1950": 60.0, "FLYRS1990": 20.0 }, "geometry": { "type": "Point", "coordinates": [ -104.04743495000001, 44.749707369999925 ] } },
{ "type": "Feature", "properties": { "STAID": "06436000", "STANAME": "BELLE FOURCHE R NEAR FRUITDALE SD", "CLASS": "Non-ref", "AGGECOREGI": "WestPlains", "DRAIN_SQKM": 11659.42, "HUC02": "10U", "LAT_GAGE": 44.690818, "LNG_GAGE": -103.737699, "STATE": "SD", "HCDN_2009": null, "ACTIVE09": "yes", "FLYRS1900": 63.0, "FLYRS1950": 60.0, "FLYRS1990": 20.0 }, "geometry": { "type": "Point", "coordinates": [ -103.737698510000016, 44.690817819999936 ] } },
{ "type": "Feature", "properties": { "STAID": "06436180", "STANAME": "WHITEWOOD CR ABOVE WHITEWOOD,SD", "CLASS": "Non-ref", "AGGECOREGI": "WestMnts", "DRAIN_SQKM": 146.6106, "HUC02": "10U", "LAT_GAGE": 44.442207, "LNG_GAGE": -103.629361, "STATE": "SD", "HCDN_2009": null, "ACTIVE09": "yes", "FLYRS1900": 26.0, "FLYRS1950": 26.0, "FLYRS1990": 20.0 }, "geometry": { "type": "Point", "coordinates": [ -103.629360570000017, 44.442206509999913 ] } },
{ "type": "Feature", "properties": { "STAID": "06436190", "STANAME": "WHITEWOOD CREEK NEAR WHITEWOOD SD", "CLASS": "Non-ref", "AGGECOREGI": "WestMnts", "DRAIN_SQKM": 200.0997, "HUC02": "10U", "LAT_GAGE": 44.541651, "LNG_GAGE": -103.571581, "STATE": "SD", "HCDN_2009": null, "ACTIVE09": "yes", "FLYRS1900": 28.0, "FLYRS1950": 28.0, "FLYRS1990": 20.0 }, "geometry": { "type": "Point", "coordinates": [ -103.571581140000021, 44.541650989999944 ] } },
{ "type": "Feature", "properties": { "STAID": "06436198", "STANAME": "WHITEWOOD CR ABOVE VALE SD", "CLASS": "Non-ref", "AGGECOREGI": "WestMnts", "DRAIN_SQKM": 263.6919, "HUC02": "10U", "LAT_GAGE": 44.617763, "LNG_GAGE": -103.481579, "STATE": "SD", "HCDN_2009": null, "ACTIVE09": "yes", "FLYRS1900": 26.0, "FLYRS1950": 26.0, "FLYRS1990": 20.0 }, "geometry": { "type": "Point", "coordinates": [ -103.481578590000012, 44.6177628099999 ] } },
{ "type": "Feature", "properties": { "STAID": "06436700", "STANAME": "INDIAN CR NEAR ARPAN SD", "CLASS": "Ref", "AGGECOREGI": "WestPlains", "DRAIN_SQKM": 810.3915, "HUC02": "10U", "LAT_GAGE": 44.814153, "LNG_GAGE": -103.68992, "STATE": "SD", "HCDN_2009": null, "ACTIVE09": null, "FLYRS1900": 20.0, "FLYRS1950": 20.0, "FLYRS1990": 0.0 }, "geometry": { "type": "Point", "coordinates": [ -103.689920070000014, 44.814152739999919 ] } },
{ "type": "Feature", "properties": { "STAID": "06436760", "STANAME": "HORSE CR ABOVE VALE SD", "CLASS": "Non-ref", "AGGECOREGI": "WestPlains", "DRAIN_SQKM": 1193.667, "HUC02": "10U", "LAT_GAGE": 44.652208, "LNG_GAGE": -103.366853, "STATE": "SD", "HCDN_2009": null, "ACTIVE09": "yes", "FLYRS1900": 29.0, "FLYRS1950": 29.0, "FLYRS1990": 20.0 }, "geometry": { "type": "Point", "coordinates": [ -103.366852660000021, 44.652208139999885 ] } },
{ "type": "Feature", "properties": { "STAID": "06437000", "STANAME": "BELLE FOURCHE R NEAR STURGIS SD", "CLASS": "Non-ref", "AGGECOREGI": "WestPlains", "DRAIN_SQKM": 15023.26, "HUC02": "10U", "LAT_GAGE": 44.513042, "LNG_GAGE": -103.136846, "STATE": "SD", "HCDN_2009": null, "ACTIVE09": "yes", "FLYRS1900": 63.0, "FLYRS1950": 60.0, "FLYRS1990": 20.0 }, "geometry": { "type": "Point", "coordinates": [ -103.136846390000017, 44.513041819999913 ] } },
{ "type": "Feature", "properties": { "STAID": "06437020", "STANAME": "BEAR BUTTE CREEK NEAR DEADWOOD, SD", "CLASS": "Non-ref", "AGGECOREGI": "WestMnts", "DRAIN_SQKM": 40.8267, "HUC02": "10U", "LAT_GAGE": 44.33554, "LNG_GAGE": -103.635472, "STATE": "SD", "HCDN_2009": null, "ACTIVE09": "yes", "FLYRS1900": 21.0, "FLYRS1950": 21.0, "FLYRS1990": 20.0 }, "geometry": { "type": "Point", "coordinates": [ -103.635472, 44.33554 ] } },
{ "type": "Feature", "properties": { "STAID": "06437500", "STANAME": "BEAR BUTTE CR NEAR STURGIS SD", "CLASS": "Non-ref", "AGGECOREGI": "WestMnts", "DRAIN_SQKM": 468.1062, "HUC02": "10U", "LAT_GAGE": 44.481375, "LNG_GAGE": -103.275739, "STATE": "SD", "HCDN_2009": null, "ACTIVE09": null, "FLYRS1900": 27.0, "FLYRS1950": 23.0, "FLYRS1990": 0.0 }, "geometry": { "type": "Point", "coordinates": [ -103.275739050000013, 44.481374499999916 ] } },
{ "type": "Feature", "properties": { "STAID": "06438000", "STANAME": "BELLE FOURCHE RIVER NEAR ELM SPRINGS", "CLASS": "Non-ref", "AGGECOREGI": "WestPlains", "DRAIN_SQKM": 18149.36, "HUC02": "10U", "LAT_GAGE": 44.369708, "LNG_GAGE": -102.566001, "STATE": "SD", "HCDN_2009": null, "ACTIVE09": "yes", "FLYRS1900": 75.0, "FLYRS1950": 60.0, "FLYRS1990": 20.0 }, "geometry": { "type": "Point", "coordinates": [ -102.566000640000013, 44.369708469999878 ] } },
{ "type": "Feature", "properties": { "STAID": "12301300", "STANAME": "Tobacco River near Eureka MT", "CLASS": "Non-ref", "AGGECOREGI": "WestMnts", "DRAIN_SQKM": 1084.973, "HUC02": "17", "LAT_GAGE": 48.893576, "LNG_GAGE": -115.087946, "STATE": "MT", "HCDN_2009": null, "ACTIVE09": "yes", "FLYRS1900": 51.0, "FLYRS1950": 51.0, "FLYRS1990": 20.0 }, "geometry": { "type": "Point", "coordinates": [ -115.087945800000014, 48.893575559986367 ] } },
{ "type": "Feature", "properties": { "STAID": "12302055", "STANAME": "Fisher River near Libby MT", "CLASS": "Non-ref", "AGGECOREGI": "WestMnts", "DRAIN_SQKM": 2185.286, "HUC02": "17", "LAT_GAGE": 48.355512, "LNG_GAGE": -115.314885, "STATE": "MT", "HCDN_2009": null, "ACTIVE09": "yes", "FLYRS1900": 42.0, "FLYRS1950": 42.0, "FLYRS1990": 20.0 }, "geometry": { "type": "Point", "coordinates": [ -115.314885, 48.355512199985142 ] } },
{ "type": "Feature", "properties": { "STAID": "12303100", "STANAME": "Flower Creek near Libby MT", "CLASS": "Ref", "AGGECOREGI": "WestMnts", "DRAIN_SQKM": 29.1384, "HUC02": "17", "LAT_GAGE": 48.344674, "LNG_GAGE": -115.606553, "STATE": "MT", "HCDN_2009": null, "ACTIVE09": null, "FLYRS1900": 32.0, "FLYRS1950": 32.0, "FLYRS1990": 3.0 }, "geometry": { "type": "Point", "coordinates": [ -115.606552800000017, 48.344673889985131 ] } },
{ "type": "Feature", "properties": { "STAID": "12303500", "STANAME": "Lake Creek at Troy MT", "CLASS": "Non-ref", "AGGECOREGI": "WestMnts", "DRAIN_SQKM": 538.218, "HUC02": "17", "LAT_GAGE": 48.446888, "LNG_GAGE": -115.877116, "STATE": "MT", "HCDN_2009": null, "ACTIVE09": null, "FLYRS1900": 25.0, "FLYRS1950": 21.0, "FLYRS1990": 6.0 }, "geometry": { "type": "Point", "coordinates": [ -115.877115500000031, 48.446887699985403 ] } },
{ "type": "Feature", "properties": { "STAID": "12305500", "STANAME": "BOULDER CREEK NR LEONIA ID", "CLASS": "Ref", "AGGECOREGI": "WestMnts", "DRAIN_SQKM": 143.7462, "HUC02": "17", "LAT_GAGE": 48.598273, "LNG_GAGE": -116.092686, "STATE": "ID", "HCDN_2009": null, "ACTIVE09": null, "FLYRS1900": 47.0, "FLYRS1950": 26.0, "FLYRS1990": 0.0 }, "geometry": { "type": "Point", "coordinates": [ -116.0926855, 48.59827327998574 ] } },
{ "type": "Feature", "properties": { "STAID": "12311000", "STANAME": "DEEP CREEK AT MORAVIA ID", "CLASS": "Non-ref", "AGGECOREGI": "WestMnts", "DRAIN_SQKM": 342.7551, "HUC02": "17", "LAT_GAGE": 48.629997, "LNG_GAGE": -116.387017, "STATE": "ID", "HCDN_2009": null, "ACTIVE09": null, "FLYRS1900": 43.0, "FLYRS1950": 22.0, "FLYRS1990": 0.0 }, "geometry": { "type": "Point", "coordinates": [ -116.387016700000032, 48.629997199985844 ] } },
{ "type": "Feature", "properties": { "STAID": "12323240", "STANAME": "Blacktail Creek at Butte MT", "CLASS": "Non-ref", "AGGECOREGI": "WestMnts", "DRAIN_SQKM": 298.7946, "HUC02": "17", "LAT_GAGE": 45.994649, "LNG_GAGE": -112.536689, "STATE": "MT", "HCDN_2009": null, "ACTIVE09": "yes", "FLYRS1900": 21.0, "FLYRS1950": 21.0, "FLYRS1990": 20.0 }, "geometry": { "type": "Point", "coordinates": [ -112.536689, 45.994649 ] } },
{ "type": "Feature", "properties": { "STAID": "12323250", "STANAME": "Silver Bow Cr bl Blacktail Cr at Butte MT", "CLASS": "Non-ref", "AGGECOREGI": "WestMnts", "DRAIN_SQKM": 322.8354, "HUC02": "17", "LAT_GAGE": 45.996871, "LNG_GAGE": -112.562801, "STATE": "MT", "HCDN_2009": null, "ACTIVE09": "yes", "FLYRS1900": 26.0, "FLYRS1950": 26.0, "FLYRS1990": 20.0 }, "geometry": { "type": "Point", "coordinates": [ -112.562801400000012, 45.9968705599999 ] } },
{ "type": "Feature", "properties": { "STAID": "12323600", "STANAME": "Silver Bow Creek at Opportunity MT", "CLASS": "Non-ref", "AGGECOREGI": "WestMnts", "DRAIN_SQKM": 887.463, "HUC02": "17", "LAT_GAGE": 46.107703, "LNG_GAGE": -112.805593, "STATE": "MT", "HCDN_2009": null, "ACTIVE09": "yes", "FLYRS1900": 18.0, "FLYRS1950": 18.0, "FLYRS1990": 18.0 }, "geometry": { "type": "Point", "coordinates": [ -112.805593, 46.107703 ] } },
{ "type": "Feature", "properties": { "STAID": "12323670", "STANAME": "Mill Creek nr Anaconda, MT", "CLASS": "Ref", "AGGECOREGI": "WestMnts", "DRAIN_SQKM": 102.4056, "HUC02": "17", "LAT_GAGE": 46.082981, "LNG_GAGE": -112.916985, "STATE": "MT", "HCDN_2009": null, "ACTIVE09": "yes", "FLYRS1900": 5.0, "FLYRS1950": 5.0, "FLYRS1990": 5.0 }, "geometry": { "type": "Point", "coordinates": [ -112.916985, 46.082981 ] } },
{ "type": "Feature", "properties": { "STAID": "12323700", "STANAME": "Mill Creek at Opportunity, MT", "CLASS": "Non-ref", "AGGECOREGI": "WestMnts", "DRAIN_SQKM": 110.1186, "HUC02": "17", "LAT_GAGE": 46.11437, "LNG_GAGE": -112.821982, "STATE": "MT", "HCDN_2009": null, "ACTIVE09": "yes", "FLYRS1900": 6.0, "FLYRS1950": 6.0, "FLYRS1990": 6.0 }, "geometry": { "type": "Point", "coordinates": [ -112.821982, 46.11437 ] } },
{ "type": "Feature", "properties": { "STAID": "12323710", "STANAME": "Willow Creek nr Anaconda, MT", "CLASS": "Ref", "AGGECOREGI": "WestMnts", "DRAIN_SQKM": 35.5581, "HUC02": "17", "LAT_GAGE": 46.064648, "LNG_GAGE": -112.893651, "STATE": "MT", "HCDN_2009": null, "ACTIVE09": "yes", "FLYRS1900": 4.0, "FLYRS1950": 4.0, "FLYRS1990": 4.0 }, "geometry": { "type": "Point", "coordinates": [ -112.893651, 46.064648 ] } },
{ "type": "Feature", "properties": { "STAID": "12323720", "STANAME": "Willow Creek at Opportunity, MT", "CLASS": "Non-ref", "AGGECOREGI": "WestMnts", "DRAIN_SQKM": 80.9658, "HUC02": "17", "LAT_GAGE": 46.106037, "LNG_GAGE": -112.81226, "STATE": "MT", "HCDN_2009": null, "ACTIVE09": "yes", "FLYRS1900": 6.0, "FLYRS1950": 6.0, "FLYRS1990": 6.0 }, "geometry": { "type": "Point", "coordinates": [ -112.81226, 46.106036999999894 ] } },
{ "type": "Feature", "properties": { "STAID": "12323750", "STANAME": "Silver Bow Creek at Warm Springs MT", "CLASS": "Non-ref", "AGGECOREGI": "WestMnts", "DRAIN_SQKM": 1200.983, "HUC02": "17", "LAT_GAGE": 46.17937, "LNG_GAGE": -112.781426, "STATE": "MT", "HCDN_2009": null, "ACTIVE09": "yes", "FLYRS1900": 23.0, "FLYRS1950": 23.0, "FLYRS1990": 16.0 }, "geometry": { "type": "Point", "coordinates": [ -112.7814265, 46.179370049999953 ] } },
{ "type": "Feature", "properties": { "STAID": "12323760", "STANAME": "Warm Springs Creek near Anaconda MT", "CLASS": "Non-ref", "AGGECOREGI": "WestMnts", "DRAIN_SQKM": 402.2136, "HUC02": "17", "LAT_GAGE": 46.133537, "LNG_GAGE": -112.914208, "STATE": "MT", "HCDN_2009": null, "ACTIVE09": "yes", "FLYRS1900": 12.0, "FLYRS1950": 12.0, "FLYRS1990": 12.0 }, "geometry": { "type": "Point", "coordinates": [ -112.914208, 46.133537 ] } },
{ "type": "Feature", "properties": { "STAID": "12323770", "STANAME": "Warm Springs Creek at Warm Springs MT", "CLASS": "Non-ref", "AGGECOREGI": "WestMnts", "DRAIN_SQKM": 413.9685, "HUC02": "17", "LAT_GAGE": 46.180301, "LNG_GAGE": -112.785949, "STATE": "MT", "HCDN_2009": null, "ACTIVE09": "yes", "FLYRS1900": 26.0, "FLYRS1950": 26.0, "FLYRS1990": 20.0 }, "geometry": { "type": "Point", "coordinates": [ -112.785948890000014, 46.180300559999942 ] } },
{ "type": "Feature", "properties": { "STAID": "12323800", "STANAME": "Clark Fork near Galen MT", "CLASS": "Non-ref", "AGGECOREGI": "WestMnts", "DRAIN_SQKM": 1690.272, "HUC02": "17", "LAT_GAGE": 46.208259, "LNG_GAGE": -112.76726, "STATE": "MT", "HCDN_2009": null, "ACTIVE09": "yes", "FLYRS1900": 21.0, "FLYRS1950": 21.0, "FLYRS1990": 20.0 }, "geometry": { "type": "Point", "coordinates": [ -112.76726, 46.208258999999892 ] } },
{ "type": "Feature", "properties": { "STAID": "12323840", "STANAME": "Lost Creek near Anaconda MT", "CLASS": "Non-ref", "AGGECOREGI": "WestMnts", "DRAIN_SQKM": 68.60414, "HUC02": "17", "LAT_GAGE": 46.16187, "LNG_GAGE": -112.89254, "STATE": "MT", "HCDN_2009": null, "ACTIVE09": "yes", "FLYRS1900": 5.0, "FLYRS1950": 5.0, "FLYRS1990": 5.0 }, "geometry": { "type": "Point", "coordinates": [ -112.89254, 46.16187 ] } },
{ "type": "Feature", "properties": { "STAID": "12323850", "STANAME": "Lost Creek near Galen, MT", "CLASS": "Non-ref", "AGGECOREGI": "WestMnts", "DRAIN_SQKM": 160.47, "HUC02": "17", "LAT_GAGE": 46.218537, "LNG_GAGE": -112.773927, "STATE": "MT", "HCDN_2009": null, "ACTIVE09": "yes", "FLYRS1900": 6.0, "FLYRS1950": 6.0, "FLYRS1990": 6.0 }, "geometry": { "type": "Point", "coordinates": [ -112.773927, 46.218537 ] } },
{ "type": "Feature", "properties": { "STAID": "12324200", "STANAME": "Clark Fork at Deer Lodge MT", "CLASS": "Non-ref", "AGGECOREGI": "WestMnts", "DRAIN_SQKM": 2591.439, "HUC02": "17", "LAT_GAGE": 46.397705, "LNG_GAGE": -112.742817, "STATE": "MT", "HCDN_2009": null, "ACTIVE09": "yes", "FLYRS1900": 31.0, "FLYRS1950": 31.0, "FLYRS1990": 20.0 }, "geometry": { "type": "Point", "coordinates": [ -112.74281670000002, 46.397705 ] } },
{ "type": "Feature", "properties": { "STAID": "12324590", "STANAME": "Little Blackfoot River near Garrison MT", "CLASS": "Non-ref", "AGGECOREGI": "WestMnts", "DRAIN_SQKM": 1071.465, "HUC02": "17", "LAT_GAGE": 46.519651, "LNG_GAGE": -112.793376, "STATE": "MT", "HCDN_2009": null, "ACTIVE09": "yes", "FLYRS1900": 36.0, "FLYRS1950": 36.0, "FLYRS1990": 19.0 }, "geometry": { "type": "Point", "coordinates": [ -112.793375800000021, 46.519651099999983 ] } },
{ "type": "Feature", "properties": { "STAID": "12324680", "STANAME": "Clark Fork at Goldcreek MT", "CLASS": "Non-ref", "AGGECOREGI": "WestMnts", "DRAIN_SQKM": 4590.105, "HUC02": "17", "LAT_GAGE": 46.590486, "LNG_GAGE": -112.928661, "STATE": "MT", "HCDN_2009": null, "ACTIVE09": "yes", "FLYRS1900": 32.0, "FLYRS1950": 32.0, "FLYRS1990": 20.0 }, "geometry": { "type": "Point", "coordinates": [ -112.928661, 46.590485799999954 ] } },
{ "type": "Feature", "properties": { "STAID": "12325500", "STANAME": "Flint Creek near Southern Cross MT", "CLASS": "Non-ref", "AGGECOREGI": "WestMnts", "DRAIN_SQKM": 140.0499, "HUC02": "17", "LAT_GAGE": 46.23298, "LNG_GAGE": -113.299783, "STATE": "MT", "HCDN_2009": null, "ACTIVE09": "yes", "FLYRS1900": 62.0, "FLYRS1950": 53.0, "FLYRS1990": 13.0 }, "geometry": { "type": "Point", "coordinates": [ -113.299783300000016, 46.2329804699999 ] } },
{ "type": "Feature", "properties": { "STAID": "12329500", "STANAME": "Flint Creek at Maxville MT", "CLASS": "Non-ref", "AGGECOREGI": "WestMnts", "DRAIN_SQKM": 532.7172, "HUC02": "17", "LAT_GAGE": 46.463816, "LNG_GAGE": -113.239787, "STATE": "MT", "HCDN_2009": null, "ACTIVE09": "yes", "FLYRS1900": 67.0, "FLYRS1950": 59.0, "FLYRS1990": 19.0 }, "geometry": { "type": "Point", "coordinates": [ -113.239786900000013, 46.463815559999908 ] } },
{ "type": "Feature", "properties": { "STAID": "12330000", "STANAME": "Boulder Creek at Maxville MT", "CLASS": "Non-ref", "AGGECOREGI": "WestMnts", "DRAIN_SQKM": 182.4732, "HUC02": "17", "LAT_GAGE": 46.472149, "LNG_GAGE": -113.233953, "STATE": "MT", "HCDN_2009": null, "ACTIVE09": "yes", "FLYRS1900": 69.0, "FLYRS1950": 59.0, "FLYRS1990": 19.0 }, "geometry": { "type": "Point", "coordinates": [ -113.23395330000001, 46.472148889999957 ] } },
{ "type": "Feature", "properties": { "STAID": "12331500", "STANAME": "Flint Creek near Drummond MT", "CLASS": "Non-ref", "AGGECOREGI": "WestMnts", "DRAIN_SQKM": 1273.599, "HUC02": "17", "LAT_GAGE": 46.628819, "LNG_GAGE": -113.151452, "STATE": "MT", "HCDN_2009": null, "ACTIVE09": "yes", "FLYRS1900": 17.0, "FLYRS1950": 16.0, "FLYRS1990": 16.0 }, "geometry": { "type": "Point", "coordinates": [ -113.151452, 46.628819 ] } },
{ "type": "Feature", "properties": { "STAID": "12331800", "STANAME": "Clark Fork near Drummond MT", "CLASS": "Non-ref", "AGGECOREGI": "WestMnts", "DRAIN_SQKM": 6511.738, "HUC02": "17", "LAT_GAGE": 46.712152, "LNG_GAGE": -113.330909, "STATE": "MT", "HCDN_2009": null, "ACTIVE09": "yes", "FLYRS1900": 16.0, "FLYRS1950": 16.0, "FLYRS1990": 16.0 }, "geometry": { "type": "Point", "coordinates": [ -113.330909, 46.712152 ] } },
{ "type": "Feature", "properties": { "STAID": "12332000", "STANAME": "Middle Fork Rock Cr nr Philipsburg MT", "CLASS": "Ref", "AGGECOREGI": "WestMnts", "DRAIN_SQKM": 315.1476, "HUC02": "17", "LAT_GAGE": 46.184493, "LNG_GAGE": -113.502474, "STATE": "MT", "HCDN_2009": null, "ACTIVE09": "yes", "FLYRS1900": 71.0, "FLYRS1950": 59.0, "FLYRS1990": 19.0 }, "geometry": { "type": "Point", "coordinates": [ -113.50247361000001, 46.1844927799999 ] } },
{ "type": "Feature", "properties": { "STAID": "12334510", "STANAME": "Rock Creek near Clinton MT", "CLASS": "Non-ref", "AGGECOREGI": "WestMnts", "DRAIN_SQKM": 2313.95, "HUC02": "17", "LAT_GAGE": 46.722427, "LNG_GAGE": -113.68315, "STATE": "MT", "HCDN_2009": null, "ACTIVE09": "yes", "FLYRS1900": 37.0, "FLYRS1950": 37.0, "FLYRS1990": 20.0 }, "geometry": { "type": "Point", "coordinates": [ -113.68315, 46.722426899999967 ] } },
{ "type": "Feature", "properties": { "STAID": "12334550", "STANAME": "Clark Fork at Turah Bridge nr Bonner MT", "CLASS": "Non-ref", "AGGECOREGI": "WestMnts", "DRAIN_SQKM": 9520.545, "HUC02": "17", "LAT_GAGE": 46.826037, "LNG_GAGE": -113.814268, "STATE": "MT", "HCDN_2009": null, "ACTIVE09": "yes", "FLYRS1900": 25.0, "FLYRS1950": 25.0, "FLYRS1990": 20.0 }, "geometry": { "type": "Point", "coordinates": [ -113.81426780000001, 46.826037499999963 ] } },
{ "type": "Feature", "properties": { "STAID": "12335100", "STANAME": "Blackfoot R ab Nevada Cr nr Helmville MT", "CLASS": "Non-ref", "AGGECOREGI": "WestMnts", "DRAIN_SQKM": 1273.574, "HUC02": "17", "LAT_GAGE": 46.919104, "LNG_GAGE": -113.01561, "STATE": "MT", "HCDN_2009": null, "ACTIVE09": "yes", "FLYRS1900": 9.0, "FLYRS1950": 9.0, "FLYRS1990": 9.0 }, "geometry": { "type": "Point", "coordinates": [ -113.01561, 46.919104 ] } },
{ "type": "Feature", "properties": { "STAID": "12335500", "STANAME": "Nevada Cr ab Reservoir, nr Helmville, MT", "CLASS": "Non-ref", "AGGECOREGI": "WestMnts", "DRAIN_SQKM": 314.1036, "HUC02": "17", "LAT_GAGE": 46.778269, "LNG_GAGE": -112.767544, "STATE": "MT", "HCDN_2009": null, "ACTIVE09": "yes", "FLYRS1900": 69.0, "FLYRS1950": 59.0, "FLYRS1990": 19.0 }, "geometry": { "type": "Point", "coordinates": [ -112.76754394000001, 46.778269409999965 ] } },
{ "type": "Feature", "properties": { "STAID": "12338300", "STANAME": "NF Blackfoot R ab Dry Gulch nr Ovando MT", "CLASS": "Non-ref", "AGGECOREGI": "WestMnts", "DRAIN_SQKM": 811.4193, "HUC02": "17", "LAT_GAGE": 46.979938, "LNG_GAGE": -113.091169, "STATE": "MT", "HCDN_2009": null, "ACTIVE09": "yes", "FLYRS1900": 12.0, "FLYRS1950": 12.0, "FLYRS1990": 12.0 }, "geometry": { "type": "Point", "coordinates": [ -113.091169, 46.979938 ] } },
{ "type": "Feature", "properties": { "STAID": "12340000", "STANAME": "Blackfoot River near Bonner MT", "CLASS": "Non-ref", "AGGECOREGI": "WestMnts", "DRAIN_SQKM": 5925.355, "HUC02": "17", "LAT_GAGE": 46.89965, "LNG_GAGE": -113.756487, "STATE": "MT", "HCDN_2009": null, "ACTIVE09": "yes", "FLYRS1900": 73.0, "FLYRS1950": 60.0, "FLYRS1990": 20.0 }, "geometry": { "type": "Point", "coordinates": [ -113.756487200000024, 46.89965 ] } },
{ "type": "Feature", "properties": { "STAID": "12340500", "STANAME": "Clark Fork above Missoula MT", "CLASS": "Non-ref", "AGGECOREGI": "WestMnts", "DRAIN_SQKM": 15591.48, "HUC02": "17", "LAT_GAGE": 46.877147, "LNG_GAGE": -113.932329, "STATE": "MT", "HCDN_2009": null, "ACTIVE09": "yes", "FLYRS1900": 80.0, "FLYRS1950": 60.0, "FLYRS1990": 20.0 }, "geometry": { "type": "Point", "coordinates": [ -113.932328600000019, 46.877146899999943 ] } },
{ "type": "Feature", "properties": { "STAID": "12342500", "STANAME": "West Fork Bitterroot River nr Conner MT", "CLASS": "Non-ref", "AGGECOREGI": "WestMnts", "DRAIN_SQKM": 820.0926, "HUC02": "17", "LAT_GAGE": 45.724918, "LNG_GAGE": -114.281475, "STATE": "MT", "HCDN_2009": null, "ACTIVE09": "yes", "FLYRS1900": 68.0, "FLYRS1950": 60.0, "FLYRS1990": 20.0 }, "geometry": { "type": "Point", "coordinates": [ -114.281475, 45.724918059999936 ] } },
{ "type": "Feature", "properties": { "STAID": "12343400", "STANAME": "East Fork Bitterroot River nr Conner MT", "CLASS": "Non-ref", "AGGECOREGI": "WestMnts", "DRAIN_SQKM": 984.969, "HUC02": "17", "LAT_GAGE": 45.883253, "LNG_GAGE": -114.065638, "STATE": "MT", "HCDN_2009": null, "ACTIVE09": null, "FLYRS1900": 20.0, "FLYRS1950": 20.0, "FLYRS1990": 4.0 }, "geometry": { "type": "Point", "coordinates": [ -114.065637900000013, 45.883253399999958 ] } },
{ "type": "Feature", "properties": { "STAID": "12344000", "STANAME": "Bitterroot River near Darby MT", "CLASS": "Non-ref", "AGGECOREGI": "WestMnts", "DRAIN_SQKM": 2718.683, "HUC02": "17", "LAT_GAGE": 45.972142, "LNG_GAGE": -114.141474, "STATE": "MT", "HCDN_2009": null, "ACTIVE09": "yes", "FLYRS1900": 72.0, "FLYRS1950": 60.0, "FLYRS1990": 20.0 }, "geometry": { "type": "Point", "coordinates": [ -114.141474200000019, 45.97214249999989 ] } },
{ "type": "Feature", "properties": { "STAID": "12346500", "STANAME": "Skalkaho Creek near Hamilton MT", "CLASS": "Non-ref", "AGGECOREGI": "WestMnts", "DRAIN_SQKM": 226.2825, "HUC02": "17", "LAT_GAGE": 46.161033, "LNG_GAGE": -113.948697, "STATE": "MT", "HCDN_2009": null, "ACTIVE09": null, "FLYRS1900": 29.0, "FLYRS1950": 29.0, "FLYRS1990": 3.0 }, "geometry": { "type": "Point", "coordinates": [ -113.948697400000015, 46.161032559999917 ] } },
{ "type": "Feature", "properties": { "STAID": "12347500", "STANAME": "Blodgett Creek near Corvallis MT", "CLASS": "Ref", "AGGECOREGI": "WestMnts", "DRAIN_SQKM": 67.52609, "HUC02": "17", "LAT_GAGE": 46.269366, "LNG_GAGE": -114.237041, "STATE": "MT", "HCDN_2009": null, "ACTIVE09": null, "FLYRS1900": 22.0, "FLYRS1950": 20.0, "FLYRS1990": 0.0 }, "geometry": { "type": "Point", "coordinates": [ -114.237040800000031, 46.269366099999949 ] } },
{ "type": "Feature", "properties": { "STAID": "12350250", "STANAME": "Bitterroot River at Bell Crossing nr Victor MT", "CLASS": "Non-ref", "AGGECOREGI": "WestMnts", "DRAIN_SQKM": 4982.504, "HUC02": "17", "LAT_GAGE": 46.443256, "LNG_GAGE": -114.123712, "STATE": "MT", "HCDN_2009": null, "ACTIVE09": "yes", "FLYRS1900": 0.0, "FLYRS1950": 0.0, "FLYRS1990": 0.0 }, "geometry": { "type": "Point", "coordinates": [ -114.123712, 46.443256 ] } },
{ "type": "Feature", "properties": { "STAID": "12351200", "STANAME": "Bitterroot River near Florence MT", "CLASS": "Non-ref", "AGGECOREGI": "WestMnts", "DRAIN_SQKM": 6139.801, "HUC02": "17", "LAT_GAGE": 46.633256, "LNG_GAGE": -114.05094, "STATE": "MT", "HCDN_2009": null, "ACTIVE09": "yes", "FLYRS1900": 15.0, "FLYRS1950": 15.0, "FLYRS1990": 7.0 }, "geometry": { "type": "Point", "coordinates": [ -114.05094, 46.633256 ] } },
{ "type": "Feature", "properties": { "STAID": "12352500", "STANAME": "Bitterroot River near Missoula MT", "CLASS": "Non-ref", "AGGECOREGI": "WestMnts", "DRAIN_SQKM": 7249.828, "HUC02": "17", "LAT_GAGE": 46.831868, "LNG_GAGE": -114.054, "STATE": "MT", "HCDN_2009": null, "ACTIVE09": "yes", "FLYRS1900": 23.0, "FLYRS1950": 20.0, "FLYRS1990": 20.0 }, "geometry": { "type": "Point", "coordinates": [ -114.054, 46.831868 ] } },
{ "type": "Feature", "properties": { "STAID": "12353000", "STANAME": "Clark Fork below Missoula MT", "CLASS": "Non-ref", "AGGECOREGI": "WestMnts", "DRAIN_SQKM": 23353.03, "HUC02": "17", "LAT_GAGE": 46.86909, "LNG_GAGE": -114.126779, "STATE": "MT", "HCDN_2009": null, "ACTIVE09": "yes", "FLYRS1900": 80.0, "FLYRS1950": 60.0, "FLYRS1990": 20.0 }, "geometry": { "type": "Point", "coordinates": [ -114.126779400000018, 46.869089699999954 ] } },
{ "type": "Feature", "properties": { "STAID": "12354000", "STANAME": "ST. REGIS RIVER NEAR ST. REGIS, MT", "CLASS": "Ref", "AGGECOREGI": "WestMnts", "DRAIN_SQKM": 828.4186, "HUC02": "17", "LAT_GAGE": 47.296874, "LNG_GAGE": -115.122639, "STATE": "MT", "HCDN_2009": null, "ACTIVE09": "yes", "FLYRS1900": 24.0, "FLYRS1950": 24.0, "FLYRS1990": 7.0 }, "geometry": { "type": "Point", "coordinates": [ -115.12263940000004, 47.296874169982509 ] } },
{ "type": "Feature", "properties": { "STAID": "12354500", "STANAME": "Clark Fork at St. Regis MT", "CLASS": "Non-ref", "AGGECOREGI": "WestMnts", "DRAIN_SQKM": 27819.99, "HUC02": "17", "LAT_GAGE": 47.301874, "LNG_GAGE": -115.087361, "STATE": "MT", "HCDN_2009": null, "ACTIVE09": "yes", "FLYRS1900": 93.0, "FLYRS1950": 60.0, "FLYRS1990": 20.0 }, "geometry": { "type": "Point", "coordinates": [ -115.0873606, 47.301874399982509 ] } },
{ "type": "Feature", "properties": { "STAID": "12358500", "STANAME": "Middle Fork Flathead River nr West Glacier MT", "CLASS": "Ref", "AGGECOREGI": "WestMnts", "DRAIN_SQKM": 2939.194, "HUC02": "17", "LAT_GAGE": 48.495244, "LNG_GAGE": -114.010119, "STATE": "MT", "HCDN_2009": "yes", "ACTIVE09": "yes", "FLYRS1900": 70.0, "FLYRS1950": 60.0, "FLYRS1990": 20.0 }, "geometry": { "type": "Point", "coordinates": [ -114.0101189, 48.495244169985469 ] } },
{ "type": "Feature", "properties": { "STAID": "12359800", "STANAME": "S F Flathead R ab Twin C nr Hungry Horse MT", "CLASS": "Ref", "AGGECOREGI": "WestMnts", "DRAIN_SQKM": 2999.681, "HUC02": "17", "LAT_GAGE": 47.979115, "LNG_GAGE": -113.560923, "STATE": "MT", "HCDN_2009": null, "ACTIVE09": "yes", "FLYRS1900": 18.0, "FLYRS1950": 18.0, "FLYRS1990": 0.0 }, "geometry": { "type": "Point", "coordinates": [ -113.560923, 47.979114999984255 ] } },
{ "type": "Feature", "properties": { "STAID": "12361000", "STANAME": "Sullivan Creek near Hungry Horse MT", "CLASS": "Ref", "AGGECOREGI": "WestMnts", "DRAIN_SQKM": 183.8952, "HUC02": "17", "LAT_GAGE": 48.029118, "LNG_GAGE": -113.703705, "STATE": "MT", "HCDN_2009": null, "ACTIVE09": null, "FLYRS1900": 25.0, "FLYRS1950": 24.0, "FLYRS1990": 0.0 }, "geometry": { "type": "Point", "coordinates": [ -113.703705200000016, 48.029118189984374 ] } },
{ "type": "Feature", "properties": { "STAID": "12362500", "STANAME": "S F Flathead River nr Columbia Falls MT", "CLASS": "Non-ref", "AGGECOREGI": "WestMnts", "DRAIN_SQKM": 4318.159, "HUC02": "17", "LAT_GAGE": 48.356631, "LNG_GAGE": -114.037618, "STATE": "MT", "HCDN_2009": null, "ACTIVE09": "yes", "FLYRS1900": 81.0, "FLYRS1950": 60.0, "FLYRS1990": 20.0 }, "geometry": { "type": "Point", "coordinates": [ -114.037618, 48.35663079998514 ] } },
{ "type": "Feature", "properties": { "STAID": "12365000", "STANAME": "Stillwater River near Whitefish MT", "CLASS": "Non-ref", "AGGECOREGI": "WestMnts", "DRAIN_SQKM": 1440.35, "HUC02": "17", "LAT_GAGE": 48.318852, "LNG_GAGE": -114.387357, "STATE": "MT", "HCDN_2009": null, "ACTIVE09": null, "FLYRS1900": 50.0, "FLYRS1950": 31.0, "FLYRS1990": 14.0 }, "geometry": { "type": "Point", "coordinates": [ -114.3873575, 48.318851959985075 ] } },
{ "type": "Feature", "properties": { "STAID": "12365700", "STANAME": "Stillwater River at Lawrence Park, at Kalispell", "CLASS": "Non-ref", "AGGECOREGI": "WestMnts", "DRAIN_SQKM": 1520.109, "HUC02": "17", "LAT_GAGE": 48.21746, "LNG_GAGE": -114.313187, "STATE": "MT", "HCDN_2009": null, "ACTIVE09": "yes", "FLYRS1900": 2.0, "FLYRS1950": 2.0, "FLYRS1990": 2.0 }, "geometry": { "type": "Point", "coordinates": [ -114.313187, 48.21745999998484 ] } },
{ "type": "Feature", "properties": { "STAID": "12366000", "STANAME": "Whitefish River near Kalispell MT", "CLASS": "Non-ref", "AGGECOREGI": "WestMnts", "DRAIN_SQKM": 451.9431, "HUC02": "17", "LAT_GAGE": 48.320241, "LNG_GAGE": -114.278464, "STATE": "MT", "HCDN_2009": null, "ACTIVE09": null, "FLYRS1900": 50.0, "FLYRS1950": 30.0, "FLYRS1990": 13.0 }, "geometry": { "type": "Point", "coordinates": [ -114.278464, 48.320240999985124 ] } },
{ "type": "Feature", "properties": { "STAID": "12366080", "STANAME": "Whitefish River nr mouth at Kalispell, MT", "CLASS": "Non-ref", "AGGECOREGI": "WestMnts", "DRAIN_SQKM": 486.2709, "HUC02": "17", "LAT_GAGE": 48.226628, "LNG_GAGE": -114.292353, "STATE": "MT", "HCDN_2009": null, "ACTIVE09": "yes", "FLYRS1900": 2.0, "FLYRS1950": 2.0, "FLYRS1990": 2.0 }, "geometry": { "type": "Point", "coordinates": [ -114.292353, 48.226627999984878 ] } },
{ "type": "Feature", "properties": { "STAID": "12369200", "STANAME": "Swan River near Condon MT", "CLASS": "Ref", "AGGECOREGI": "WestMnts", "DRAIN_SQKM": 197.0991, "HUC02": "17", "LAT_GAGE": 47.422436, "LNG_GAGE": -113.670921, "STATE": "MT", "HCDN_2009": null, "ACTIVE09": null, "FLYRS1900": 20.0, "FLYRS1950": 20.0, "FLYRS1990": 3.0 }, "geometry": { "type": "Point", "coordinates": [ -113.670921400000026, 47.422435799982836 ] } },
{ "type": "Feature", "properties": { "STAID": "12370000", "STANAME": "Swan River near Bigfork MT", "CLASS": "Non-ref", "AGGECOREGI": "WestMnts", "DRAIN_SQKM": 1715.115, "HUC02": "17", "LAT_GAGE": 48.024396, "LNG_GAGE": -113.979829, "STATE": "MT", "HCDN_2009": null, "ACTIVE09": "yes", "FLYRS1900": 87.0, "FLYRS1950": 60.0, "FLYRS1990": 20.0 }, "geometry": { "type": "Point", "coordinates": [ -113.979828900000015, 48.024396099984365 ] } },
{ "type": "Feature", "properties": { "STAID": "12372000", "STANAME": "Flathead River near Polson MT", "CLASS": "Non-ref", "AGGECOREGI": "WestMnts", "DRAIN_SQKM": 16725.67, "HUC02": "17", "LAT_GAGE": 47.680216, "LNG_GAGE": -114.246788, "STATE": "MT", "HCDN_2009": null, "ACTIVE09": "yes", "FLYRS1900": 101.0, "FLYRS1950": 60.0, "FLYRS1990": 20.0 }, "geometry": { "type": "Point", "coordinates": [ -114.246788, 47.680215799983472 ] } },
{ "type": "Feature", "properties": { "STAID": "12374250", "STANAME": "Mill Cr ab Bassoo Cr nr Niarada MT", "CLASS": "Ref", "AGGECOREGI": "WestMnts", "DRAIN_SQKM": 50.7897, "HUC02": "17", "LAT_GAGE": 47.829664, "LNG_GAGE": -114.69763, "STATE": "MT", "HCDN_2009": "yes", "ACTIVE09": "yes", "FLYRS1900": 27.0, "FLYRS1950": 27.0, "FLYRS1990": 20.0 }, "geometry": { "type": "Point", "coordinates": [ -114.697630300000029, 47.829664169983893 ] } },
{ "type": "Feature", "properties": { "STAID": "12375900", "STANAME": "South Crow Creek near Ronan MT", "CLASS": "Ref", "AGGECOREGI": "WestMnts", "DRAIN_SQKM": 19.7226, "HUC02": "17", "LAT_GAGE": 47.4916, "LNG_GAGE": -114.026774, "STATE": "MT", "HCDN_2009": "yes", "ACTIVE09": "yes", "FLYRS1900": 27.0, "FLYRS1950": 27.0, "FLYRS1990": 20.0 }, "geometry": { "type": "Point", "coordinates": [ -114.02677420000002, 47.491599999983023 ] } },
{ "type": "Feature", "properties": { "STAID": "12377150", "STANAME": "Mission Cr ab Reservoir nr ST Ignatius MT", "CLASS": "Ref", "AGGECOREGI": "WestMnts", "DRAIN_SQKM": 32.1768, "HUC02": "17", "LAT_GAGE": 47.322987, "LNG_GAGE": -113.979548, "STATE": "MT", "HCDN_2009": "yes", "ACTIVE09": "yes", "FLYRS1900": 27.0, "FLYRS1950": 27.0, "FLYRS1990": 20.0 }, "geometry": { "type": "Point", "coordinates": [ -113.97954750000001, 47.322986899982553 ] } },
{ "type": "Feature", "properties": { "STAID": "12381400", "STANAME": "South Fork Jocko River near Arlee MT", "CLASS": "Ref", "AGGECOREGI": "WestMnts", "DRAIN_SQKM": 150.9471, "HUC02": "17", "LAT_GAGE": 47.195486, "LNG_GAGE": -113.850653, "STATE": "MT", "HCDN_2009": "yes", "ACTIVE09": "yes", "FLYRS1900": 27.0, "FLYRS1950": 27.0, "FLYRS1990": 20.0 }, "geometry": { "type": "Point", "coordinates": [ -113.850653300000019, 47.195486399982251 ] } },
{ "type": "Feature", "properties": { "STAID": "12383500", "STANAME": "Big Knife Creek near Arlee MT", "CLASS": "Ref", "AGGECOREGI": "WestMnts", "DRAIN_SQKM": 17.6706, "HUC02": "17", "LAT_GAGE": 47.147428, "LNG_GAGE": -113.974272, "STATE": "MT", "HCDN_2009": "yes", "ACTIVE09": "yes", "FLYRS1900": 27.0, "FLYRS1950": 27.0, "FLYRS1990": 20.0 }, "geometry": { "type": "Point", "coordinates": [ -113.974271700000017, 47.147428059999925 ] } },
{ "type": "Feature", "properties": { "STAID": "12387450", "STANAME": "Valley Creek near Arlee MT", "CLASS": "Ref", "AGGECOREGI": "WestMnts", "DRAIN_SQKM": 41.8257, "HUC02": "17", "LAT_GAGE": 47.1702, "LNG_GAGE": -114.23067, "STATE": "MT", "HCDN_2009": null, "ACTIVE09": "yes", "FLYRS1900": 0.0, "FLYRS1950": 0.0, "FLYRS1990": 0.0 }, "geometry": { "type": "Point", "coordinates": [ -114.23067, 47.1702 ] } },
{ "type": "Feature", "properties": { "STAID": "12388200", "STANAME": "Jocko River at Dixon MT", "CLASS": "Non-ref", "AGGECOREGI": "WestMnts", "DRAIN_SQKM": 1002.155, "HUC02": "17", "LAT_GAGE": 47.31187, "LNG_GAGE": -114.29762, "STATE": "MT", "HCDN_2009": null, "ACTIVE09": "yes", "FLYRS1900": 19.0, "FLYRS1950": 19.0, "FLYRS1990": 19.0 }, "geometry": { "type": "Point", "coordinates": [ -114.29762, 47.311869999982548 ] } },
{ "type": "Feature", "properties": { "STAID": "12388400", "STANAME": "Revais Cr bl West Fork nr Dixon MT", "CLASS": "Ref", "AGGECOREGI": "WestMnts", "DRAIN_SQKM": 60.8409, "HUC02": "17", "LAT_GAGE": 47.266317, "LNG_GAGE": -114.406786, "STATE": "MT", "HCDN_2009": "yes", "ACTIVE09": "yes", "FLYRS1900": 27.0, "FLYRS1950": 27.0, "FLYRS1990": 20.0 }, "geometry": { "type": "Point", "coordinates": [ -114.406786400000016, 47.266317199982389 ] } },
{ "type": "Feature", "properties": { "STAID": "12388700", "STANAME": "Flathead River at Perma MT", "CLASS": "Non-ref", "AGGECOREGI": "WestMnts", "DRAIN_SQKM": 21787.5, "HUC02": "17", "LAT_GAGE": 47.367432, "LNG_GAGE": -114.585126, "STATE": "MT", "HCDN_2009": null, "ACTIVE09": "yes", "FLYRS1900": 26.0, "FLYRS1950": 26.0, "FLYRS1990": 20.0 }, "geometry": { "type": "Point", "coordinates": [ -114.5851264, 47.367431899982684 ] } },
{ "type": "Feature", "properties": { "STAID": "12389500", "STANAME": "Thompson River near Thompson Falls MT", "CLASS": "Non-ref", "AGGECOREGI": "WestMnts", "DRAIN_SQKM": 1651.865, "HUC02": "17", "LAT_GAGE": 47.591881, "LNG_GAGE": -115.229593, "STATE": "MT", "HCDN_2009": null, "ACTIVE09": "yes", "FLYRS1900": 53.0, "FLYRS1950": 53.0, "FLYRS1990": 20.0 }, "geometry": { "type": "Point", "coordinates": [ -115.229593, 47.591880559983281 ] } },
{ "type": "Feature", "properties": { "STAID": "12390700", "STANAME": "Prospect Creek at Thompson Falls MT", "CLASS": "Ref", "AGGECOREGI": "WestMnts", "DRAIN_SQKM": 470.2338, "HUC02": "17", "LAT_GAGE": 47.586046, "LNG_GAGE": -115.355153, "STATE": "MT", "HCDN_2009": "yes", "ACTIVE09": "yes", "FLYRS1900": 53.0, "FLYRS1950": 53.0, "FLYRS1990": 20.0 }, "geometry": { "type": "Point", "coordinates": [ -115.355153, 47.586046099983292 ] } },
{ "type": "Feature", "properties": { "STAID": "12392155", "STANAME": "LIGHTNING CREEK AT CLARK FORK ID", "CLASS": "Ref", "AGGECOREGI": "WestMnts", "DRAIN_SQKM": 326.1928, "HUC02": "17", "LAT_GAGE": 48.151667, "LNG_GAGE": -116.181667, "STATE": "ID", "HCDN_2009": null, "ACTIVE09": "yes", "FLYRS1900": 20.0, "FLYRS1950": 20.0, "FLYRS1990": 19.0 }, "geometry": { "type": "Point", "coordinates": [ -116.181667, 48.151666999984691 ] } },
{ "type": "Feature", "properties": { "STAID": "05014000", "STANAME": "Grinnell Creek nr. Many Glacier MT", "CLASS": "Non-ref", "AGGECOREGI": "WestMnts", "DRAIN_SQKM": 8.149289, "HUC02": "10U", "LAT_GAGE": 48.770533, "LNG_GAGE": -113.699002, "STATE": "MT", "HCDN_2009": null, "ACTIVE09": null, "FLYRS1900": 27.0, "FLYRS1950": 27.0, "FLYRS1990": 0.0 }, "geometry": { "type": "Point", "coordinates": [ -113.699002400000012, 48.770532699986092 ] } },
{ "type": "Feature", "properties": { "STAID": "05014300", "STANAME": "Swiftcurrent Cr ab Swiftcurrent Lk at Many Glacier", "CLASS": "Ref", "AGGECOREGI": "WestMnts", "DRAIN_SQKM": 40.3389, "HUC02": "10U", "LAT_GAGE": 48.795256, "LNG_GAGE": -113.680112, "STATE": "MT", "HCDN_2009": null, "ACTIVE09": "yes", "FLYRS1900": 0.0, "FLYRS1950": 0.0, "FLYRS1990": 0.0 }, "geometry": { "type": "Point", "coordinates": [ -113.680112, 48.795255999986203 ] } },
{ "type": "Feature", "properties": { "STAID": "05014500", "STANAME": "Swiftcurrent Creek at Many Glacier MT", "CLASS": "Non-ref", "AGGECOREGI": "WestMnts", "DRAIN_SQKM": 79.7283, "HUC02": "10U", "LAT_GAGE": 48.799145, "LNG_GAGE": -113.656776, "STATE": "MT", "HCDN_2009": null, "ACTIVE09": "yes", "FLYRS1900": 53.0, "FLYRS1950": 51.0, "FLYRS1990": 20.0 }, "geometry": { "type": "Point", "coordinates": [ -113.656776400000012, 48.799145299986215 ] } },
{ "type": "Feature", "properties": { "STAID": "05017500", "STANAME": "St. Mary River near Babb MT", "CLASS": "Non-ref", "AGGECOREGI": "WestMnts", "DRAIN_SQKM": 711.1539, "HUC02": "10U", "LAT_GAGE": 48.833315, "LNG_GAGE": -113.41982, "STATE": "MT", "HCDN_2009": null, "ACTIVE09": "yes", "FLYRS1900": 75.0, "FLYRS1950": 59.0, "FLYRS1990": 20.0 }, "geometry": { "type": "Point", "coordinates": [ -113.41982, 48.833314999986278 ] } },
{ "type": "Feature", "properties": { "STAID": "06006000", "STANAME": "Red Rock Cr ab Lakes nr Lakeview MT", "CLASS": "Non-ref", "AGGECOREGI": "WestMnts", "DRAIN_SQKM": 98.6499, "HUC02": "10U", "LAT_GAGE": 44.615474, "LNG_GAGE": -111.62913, "STATE": "MT", "HCDN_2009": null, "ACTIVE09": "yes", "FLYRS1900": 0.0, "FLYRS1950": 0.0, "FLYRS1990": 0.0 }, "geometry": { "type": "Point", "coordinates": [ -111.62913, 44.615474 ] } },
{ "type": "Feature", "properties": { "STAID": "06012500", "STANAME": "Red Rock R bl Lima Reservoir nr Monida MT", "CLASS": "Non-ref", "AGGECOREGI": "WestMnts", "DRAIN_SQKM": 1469.558, "HUC02": "10U", "LAT_GAGE": 44.656023, "LNG_GAGE": -112.371389, "STATE": "MT", "HCDN_2009": null, "ACTIVE09": "yes", "FLYRS1900": 49.0, "FLYRS1950": 21.0, "FLYRS1990": 1.0 }, "geometry": { "type": "Point", "coordinates": [ -112.371389, 44.656023459999915 ] } },
{ "type": "Feature", "properties": { "STAID": "06013500", "STANAME": "Big Sheep Cr bl Muddy Cr nr Dell MT", "CLASS": "Non-ref", "AGGECOREGI": "WestMnts", "DRAIN_SQKM": 721.9062, "HUC02": "10U", "LAT_GAGE": 44.655026, "LNG_GAGE": -112.779321, "STATE": "MT", "HCDN_2009": null, "ACTIVE09": null, "FLYRS1900": 26.0, "FLYRS1950": 23.0, "FLYRS1990": 0.0 }, "geometry": { "type": "Point", "coordinates": [ -112.779321100000018, 44.655025699999939 ] } },
{ "type": "Feature", "properties": { "STAID": "06015400", "STANAME": "Beaverhead River near Grant MT", "CLASS": "Non-ref", "AGGECOREGI": "WestMnts", "DRAIN_SQKM": 5999.751, "HUC02": "10U", "LAT_GAGE": 45.003254, "LNG_GAGE": -112.853636, "STATE": "MT", "HCDN_2009": null, "ACTIVE09": null, "FLYRS1900": 21.0, "FLYRS1950": 21.0, "FLYRS1990": 0.0 }, "geometry": { "type": "Point", "coordinates": [ -112.853636300000019, 45.003254099999936 ] } },
{ "type": "Feature", "properties": { "STAID": "06016000", "STANAME": "Beaverhead River at Barretts MT", "CLASS": "Non-ref", "AGGECOREGI": "WestMnts", "DRAIN_SQKM": 7070.924, "HUC02": "10U", "LAT_GAGE": 45.11631, "LNG_GAGE": -112.750579, "STATE": "MT", "HCDN_2009": null, "ACTIVE09": "yes", "FLYRS1900": 79.0, "FLYRS1950": 37.0, "FLYRS1990": 0.0 }, "geometry": { "type": "Point", "coordinates": [ -112.750579300000012, 45.1163101 ] } },
{ "type": "Feature", "properties": { "STAID": "06017000", "STANAME": "Beaverhead River at Dillon MT", "CLASS": "Non-ref", "AGGECOREGI": "WestMnts", "DRAIN_SQKM": 7493.159, "HUC02": "10U", "LAT_GAGE": 45.217977, "LNG_GAGE": -112.655854, "STATE": "MT", "HCDN_2009": null, "ACTIVE09": "yes", "FLYRS1900": 10.0, "FLYRS1950": 10.0, "FLYRS1990": 0.0 }, "geometry": { "type": "Point", "coordinates": [ -112.655854, 45.217977 ] } },
{ "type": "Feature", "properties": { "STAID": "06018500", "STANAME": "Beaverhead River near Twin Bridges MT", "CLASS": "Non-ref", "AGGECOREGI": "WestMnts", "DRAIN_SQKM": 9373.345, "HUC02": "10U", "LAT_GAGE": 45.383535, "LNG_GAGE": -112.452786, "STATE": "MT", "HCDN_2009": null, "ACTIVE09": "yes", "FLYRS1900": 74.0, "FLYRS1950": 60.0, "FLYRS1990": 20.0 }, "geometry": { "type": "Point", "coordinates": [ -112.4527864, 45.383534699999913 ] } },
{ "type": "Feature", "properties": { "STAID": "06019500", "STANAME": "Ruby River ab Reservoir nr Alder MT", "CLASS": "Non-ref", "AGGECOREGI": "WestMnts", "DRAIN_SQKM": 1324.336, "HUC02": "10U", "LAT_GAGE": 45.192422, "LNG_GAGE": -112.142486, "STATE": "MT", "HCDN_2009": null, "ACTIVE09": "yes", "FLYRS1900": 70.0, "FLYRS1950": 59.0, "FLYRS1990": 19.0 }, "geometry": { "type": "Point", "coordinates": [ -112.142486420000012, 45.1924222799999 ] } },
{ "type": "Feature", "properties": { "STAID": "06020600", "STANAME": "Ruby River bl Reservoir nr Alder MT", "CLASS": "Non-ref", "AGGECOREGI": "WestMnts", "DRAIN_SQKM": 1541.163, "HUC02": "10U", "LAT_GAGE": 45.242146, "LNG_GAGE": -112.11082, "STATE": "MT", "HCDN_2009": null, "ACTIVE09": "yes", "FLYRS1900": 46.0, "FLYRS1950": 46.0, "FLYRS1990": 20.0 }, "geometry": { "type": "Point", "coordinates": [ -112.11081954, 45.242145759999936 ] } },
{ "type": "Feature", "properties": { "STAID": "06023100", "STANAME": "Beaverhead River at Twin Bridges, MT", "CLASS": "Non-ref", "AGGECOREGI": "WestMnts", "DRAIN_SQKM": 12359.09, "HUC02": "10U", "LAT_GAGE": 45.54687, "LNG_GAGE": -112.338057, "STATE": "MT", "HCDN_2009": null, "ACTIVE09": "yes", "FLYRS1900": 0.0, "FLYRS1950": 0.0, "FLYRS1990": 0.0 }, "geometry": { "type": "Point", "coordinates": [ -112.338057, 45.54687 ] } },
{ "type": "Feature", "properties": { "STAID": "06024450", "STANAME": "Big Hole River bl Big Lake Cr at Wisdom MT", "CLASS": "Non-ref", "AGGECOREGI": "WestMnts", "DRAIN_SQKM": 1538.098, "HUC02": "10U", "LAT_GAGE": 45.618534, "LNG_GAGE": -113.457837, "STATE": "MT", "HCDN_2009": null, "ACTIVE09": "yes", "FLYRS1900": 0.0, "FLYRS1950": 0.0, "FLYRS1990": 0.0 }, "geometry": { "type": "Point", "coordinates": [ -113.457837, 45.61853399999989 ] } },
{ "type": "Feature", "properties": { "STAID": "06024540", "STANAME": "Big Hole River bl Mudd Cr nr Wisdom MT", "CLASS": "Non-ref", "AGGECOREGI": "WestMnts", "DRAIN_SQKM": 3299.167, "HUC02": "10U", "LAT_GAGE": 45.807424, "LNG_GAGE": -113.313388, "STATE": "MT", "HCDN_2009": null, "ACTIVE09": "yes", "FLYRS1900": 0.0, "FLYRS1950": 0.0, "FLYRS1990": 0.0 }, "geometry": { "type": "Point", "coordinates": [ -113.313388, 45.807424 ] } },
{ "type": "Feature", "properties": { "STAID": "06025250", "STANAME": "Big Hole River at Maiden Rock nr Divide MT", "CLASS": "Non-ref", "AGGECOREGI": "WestMnts", "DRAIN_SQKM": 5692.807, "HUC02": "10U", "LAT_GAGE": 45.701315, "LNG_GAGE": -112.735305, "STATE": "MT", "HCDN_2009": null, "ACTIVE09": "yes", "FLYRS1900": 0.0, "FLYRS1950": 0.0, "FLYRS1990": 0.0 }, "geometry": { "type": "Point", "coordinates": [ -112.735305, 45.701315 ] } },
{ "type": "Feature", "properties": { "STAID": "06025500", "STANAME": "Big Hole River near Melrose MT", "CLASS": "Non-ref", "AGGECOREGI": "WestMnts", "DRAIN_SQKM": 6405.925, "HUC02": "10U", "LAT_GAGE": 45.526593, "LNG_GAGE": -112.70169, "STATE": "MT", "HCDN_2009": null, "ACTIVE09": "yes", "FLYRS1900": 86.0, "FLYRS1950": 60.0, "FLYRS1990": 20.0 }, "geometry": { "type": "Point", "coordinates": [ -112.70169030000001, 45.526593299999909 ] } },
{ "type": "Feature", "properties": { "STAID": "06026000", "STANAME": "Birch Creek near Glen MT", "CLASS": "Non-ref", "AGGECOREGI": "WestMnts", "DRAIN_SQKM": 92.907, "HUC02": "10U", "LAT_GAGE": 45.379369, "LNG_GAGE": -112.797529, "STATE": "MT", "HCDN_2009": null, "ACTIVE09": null, "FLYRS1900": 28.0, "FLYRS1950": 25.0, "FLYRS1990": 0.0 }, "geometry": { "type": "Point", "coordinates": [ -112.797528500000013, 45.379369299999944 ] } },
{ "type": "Feature", "properties": { "STAID": "06026210", "STANAME": "Big Hole River near Glen MT", "CLASS": "Non-ref", "AGGECOREGI": "WestMnts", "DRAIN_SQKM": 6906.721, "HUC02": "10U", "LAT_GAGE": 45.44048, "LNG_GAGE": -112.5564, "STATE": "MT", "HCDN_2009": null, "ACTIVE09": "yes", "FLYRS1900": 0.0, "FLYRS1950": 0.0, "FLYRS1990": 0.0 }, "geometry": { "type": "Point", "coordinates": [ -112.5564, 45.44048 ] } },
{ "type": "Feature", "properties": { "STAID": "06026420", "STANAME": "Big Hole R bl Hamilton Ditch nr Twin Bridges, MT", "CLASS": "Non-ref", "AGGECOREGI": "WestMnts", "DRAIN_SQKM": 7225.151, "HUC02": "10U", "LAT_GAGE": 45.549648, "LNG_GAGE": -112.359725, "STATE": "MT", "HCDN_2009": null, "ACTIVE09": "yes", "FLYRS1900": 0.0, "FLYRS1950": 0.0, "FLYRS1990": 0.0 }, "geometry": { "type": "Point", "coordinates": [ -112.359725, 45.549648 ] } },
{ "type": "Feature", "properties": { "STAID": "06026500", "STANAME": "Jefferson River near Twin Bridges MT", "CLASS": "Non-ref", "AGGECOREGI": "WestMnts", "DRAIN_SQKM": 19721.99, "HUC02": "10U", "LAT_GAGE": 45.612426, "LNG_GAGE": -112.330558, "STATE": "MT", "HCDN_2009": null, "ACTIVE09": "yes", "FLYRS1900": 33.0, "FLYRS1950": 30.0, "FLYRS1990": 15.0 }, "geometry": { "type": "Point", "coordinates": [ -112.33055760000002, 45.612426 ] } },
{ "type": "Feature", "properties": { "STAID": "06033000", "STANAME": "Boulder River near Boulder MT", "CLASS": "Non-ref", "AGGECOREGI": "WestMnts", "DRAIN_SQKM": 990.9198, "HUC02": "10U", "LAT_GAGE": 46.211039, "LNG_GAGE": -112.091665, "STATE": "MT", "HCDN_2009": null, "ACTIVE09": "yes", "FLYRS1900": 66.0, "FLYRS1950": 48.0, "FLYRS1990": 20.0 }, "geometry": { "type": "Point", "coordinates": [ -112.091665, 46.211038889999948 ] } },
{ "type": "Feature", "properties": { "STAID": "06034500", "STANAME": "Jefferson River at Sappington MT", "CLASS": "Non-ref", "AGGECOREGI": "WestMnts", "DRAIN_SQKM": 24007.1, "HUC02": "10U", "LAT_GAGE": 45.804095, "LNG_GAGE": -111.752202, "STATE": "MT", "HCDN_2009": null, "ACTIVE09": null, "FLYRS1900": 36.0, "FLYRS1950": 20.0, "FLYRS1990": 0.0 }, "geometry": { "type": "Point", "coordinates": [ -111.752201500000012, 45.804094869999908 ] } },
{ "type": "Feature", "properties": { "STAID": "06035000", "STANAME": "Willow Creek near Harrison MT", "CLASS": "Non-ref", "AGGECOREGI": "WestMnts", "DRAIN_SQKM": 223.9119, "HUC02": "10U", "LAT_GAGE": 45.722984, "LNG_GAGE": -111.741089, "STATE": "MT", "HCDN_2009": null, "ACTIVE09": "yes", "FLYRS1900": 44.0, "FLYRS1950": 33.0, "FLYRS1990": 0.0 }, "geometry": { "type": "Point", "coordinates": [ -111.741089400000021, 45.722983849999906 ] } },
{ "type": "Feature", "properties": { "STAID": "06036650", "STANAME": "Jefferson River near Three Forks MT", "CLASS": "Non-ref", "AGGECOREGI": "WestMnts", "DRAIN_SQKM": 24755.09, "HUC02": "10U", "LAT_GAGE": 45.897706, "LNG_GAGE": -111.596639, "STATE": "MT", "HCDN_2009": null, "ACTIVE09": "yes", "FLYRS1900": 31.0, "FLYRS1950": 31.0, "FLYRS1990": 20.0 }, "geometry": { "type": "Point", "coordinates": [ -111.596638900000016, 45.897705799999954 ] } },
{ "type": "Feature", "properties": { "STAID": "06036805", "STANAME": "Firehole River at Old Faithful, YNP", "CLASS": "Ref", "AGGECOREGI": "WestMnts", "DRAIN_SQKM": 103.1144, "HUC02": "10U", "LAT_GAGE": 44.45966, "LNG_GAGE": -110.82243, "STATE": "WY", "HCDN_2009": null, "ACTIVE09": "yes", "FLYRS1900": 3.0, "FLYRS1950": 3.0, "FLYRS1990": 3.0 }, "geometry": { "type": "Point", "coordinates": [ -110.82243, 44.459659999999879 ] } },
{ "type": "Feature", "properties": { "STAID": "06036905", "STANAME": "Firehole River near West Yellowstone MT", "CLASS": "Ref", "AGGECOREGI": "WestMnts", "DRAIN_SQKM": 676.8891, "HUC02": "10U", "LAT_GAGE": 44.62021, "LNG_GAGE": -110.86299, "STATE": "WY", "HCDN_2009": null, "ACTIVE09": "yes", "FLYRS1900": 19.0, "FLYRS1950": 19.0, "FLYRS1990": 13.0 }, "geometry": { "type": "Point", "coordinates": [ -110.86299, 44.62021 ] } },
{ "type": "Feature", "properties": { "STAID": "06037100", "STANAME": "Gibbon River at Madison Jct, YNP", "CLASS": "Ref", "AGGECOREGI": "WestMnts", "DRAIN_SQKM": 322.7652, "HUC02": "10U", "LAT_GAGE": 44.640488, "LNG_GAGE": -110.861323, "STATE": "WY", "HCDN_2009": null, "ACTIVE09": "yes", "FLYRS1900": 7.0, "FLYRS1950": 7.0, "FLYRS1990": 7.0 }, "geometry": { "type": "Point", "coordinates": [ -110.861323, 44.640487999999891 ] } },
{ "type": "Feature", "properties": { "STAID": "06037500", "STANAME": "Madison River near West Yellowstone MT", "CLASS": "Ref", "AGGECOREGI": "WestMnts", "DRAIN_SQKM": 1126.247, "HUC02": "10U", "LAT_GAGE": 44.656872, "LNG_GAGE": -111.068274, "STATE": "MT", "HCDN_2009": "yes", "ACTIVE09": "yes", "FLYRS1900": 82.0, "FLYRS1950": 48.0, "FLYRS1990": 20.0 }, "geometry": { "type": "Point", "coordinates": [ -111.068274200000019, 44.656872199999938 ] } },
{ "type": "Feature", "properties": { "STAID": "06038500", "STANAME": "Madison River bl Hebgen Lake nr Grayling MT", "CLASS": "Non-ref", "AGGECOREGI": "WestMnts", "DRAIN_SQKM": 2411.956, "HUC02": "10U", "LAT_GAGE": 44.866593, "LNG_GAGE": -111.338288, "STATE": "MT", "HCDN_2009": null, "ACTIVE09": "yes", "FLYRS1900": 71.0, "FLYRS1950": 60.0, "FLYRS1990": 20.0 }, "geometry": { "type": "Point", "coordinates": [ -111.338288, 44.866592779999884 ] } },
{ "type": "Feature", "properties": { "STAID": "06038800", "STANAME": "Madison River at Kirby Ranch nr Cameron MT", "CLASS": "Non-ref", "AGGECOREGI": "WestMnts", "DRAIN_SQKM": 3010.995, "HUC02": "10U", "LAT_GAGE": 44.889369, "LNG_GAGE": -111.580243, "STATE": "MT", "HCDN_2009": null, "ACTIVE09": "yes", "FLYRS1900": 19.0, "FLYRS1950": 19.0, "FLYRS1990": 15.0 }, "geometry": { "type": "Point", "coordinates": [ -111.580243, 44.889369 ] } },
{ "type": "Feature", "properties": { "STAID": "06040800", "STANAME": "Madison River ab powerplant nr McAllister MT", "CLASS": "Non-ref", "AGGECOREGI": "WestMnts", "DRAIN_SQKM": 5728.701, "HUC02": "10U", "LAT_GAGE": 45.486595, "LNG_GAGE": -111.63386, "STATE": "MT", "HCDN_2009": null, "ACTIVE09": "yes", "FLYRS1900": 7.0, "FLYRS1950": 7.0, "FLYRS1990": 7.0 }, "geometry": { "type": "Point", "coordinates": [ -111.63386, 45.486595 ] } },
{ "type": "Feature", "properties": { "STAID": "06041000", "STANAME": "Madison River bl Ennis Lake nr Mcallister MT", "CLASS": "Non-ref", "AGGECOREGI": "WestMnts", "DRAIN_SQKM": 5729.268, "HUC02": "10U", "LAT_GAGE": 45.490206, "LNG_GAGE": -111.634138, "STATE": "MT", "HCDN_2009": null, "ACTIVE09": "yes", "FLYRS1900": 71.0, "FLYRS1950": 60.0, "FLYRS1990": 20.0 }, "geometry": { "type": "Point", "coordinates": [ -111.634138210000017, 45.490205769999953 ] } },
{ "type": "Feature", "properties": { "STAID": "06043500", "STANAME": "Gallatin River near Gallatin Gateway MT", "CLASS": "Ref", "AGGECOREGI": "WestMnts", "DRAIN_SQKM": 2120.42, "HUC02": "10U", "LAT_GAGE": 45.497429, "LNG_GAGE": -111.270511, "STATE": "MT", "HCDN_2009": "yes", "ACTIVE09": "yes", "FLYRS1900": 74.0, "FLYRS1950": 55.0, "FLYRS1990": 20.0 }, "geometry": { "type": "Point", "coordinates": [ -111.270510800000011, 45.497428599999921 ] } },
{ "type": "Feature", "properties": { "STAID": "06048500", "STANAME": "Bridger Creek near Bozeman MT", "CLASS": "Non-ref", "AGGECOREGI": "WestMnts", "DRAIN_SQKM": 161.6454, "HUC02": "10U", "LAT_GAGE": 45.705487, "LNG_GAGE": -110.961889, "STATE": "MT", "HCDN_2009": null, "ACTIVE09": null, "FLYRS1900": 24.0, "FLYRS1950": 20.0, "FLYRS1990": 0.0 }, "geometry": { "type": "Point", "coordinates": [ -110.961889, 45.705486599999915 ] } },
{ "type": "Feature", "properties": { "STAID": "06048700", "STANAME": "East Gallatin R bl Bridger C nr Bozeman MT", "CLASS": "Non-ref", "AGGECOREGI": "WestMnts", "DRAIN_SQKM": 585.0927, "HUC02": "10U", "LAT_GAGE": 45.72493, "LNG_GAGE": -111.069671, "STATE": "MT", "HCDN_2009": null, "ACTIVE09": "yes", "FLYRS1900": 8.0, "FLYRS1950": 8.0, "FLYRS1990": 8.0 }, "geometry": { "type": "Point", "coordinates": [ -111.069671, 45.72493 ] } },
{ "type": "Feature", "properties": { "STAID": "06050000", "STANAME": "Hyalite C at Hyalite R S nr Bozeman MT", "CLASS": "Non-ref", "AGGECOREGI": "WestMnts", "DRAIN_SQKM": 125.5914, "HUC02": "10U", "LAT_GAGE": 45.561597, "LNG_GAGE": -111.070781, "STATE": "MT", "HCDN_2009": null, "ACTIVE09": null, "FLYRS1900": 59.0, "FLYRS1950": 44.0, "FLYRS1990": 4.0 }, "geometry": { "type": "Point", "coordinates": [ -111.070781, 45.561596869999967 ] } },
{ "type": "Feature", "properties": { "STAID": "06052500", "STANAME": "Gallatin River at Logan MT", "CLASS": "Non-ref", "AGGECOREGI": "WestMnts", "DRAIN_SQKM": 4634.347, "HUC02": "10U", "LAT_GAGE": 45.885206, "LNG_GAGE": -111.438298, "STATE": "MT", "HCDN_2009": null, "ACTIVE09": "yes", "FLYRS1900": 87.0, "FLYRS1950": 60.0, "FLYRS1990": 20.0 }, "geometry": { "type": "Point", "coordinates": [ -111.438298300000028, 45.885206099999962 ] } },
{ "type": "Feature", "properties": { "STAID": "06054500", "STANAME": "Missouri River at Toston MT", "CLASS": "Non-ref", "AGGECOREGI": "WestMnts", "DRAIN_SQKM": 38074.68, "HUC02": "10U", "LAT_GAGE": 46.14604, "LNG_GAGE": -111.42052, "STATE": "MT", "HCDN_2009": null, "ACTIVE09": "yes", "FLYRS1900": 74.0, "FLYRS1950": 60.0, "FLYRS1990": 20.0 }, "geometry": { "type": "Point", "coordinates": [ -111.42052, 46.146040279999895 ] } },
{ "type": "Feature", "properties": { "STAID": "06061500", "STANAME": "Prickly Pear Creek near Clancy MT", "CLASS": "Non-ref", "AGGECOREGI": "WestMnts", "DRAIN_SQKM": 497.205, "HUC02": "10U", "LAT_GAGE": 46.5191, "LNG_GAGE": -111.946658, "STATE": "MT", "HCDN_2009": null, "ACTIVE09": "yes", "FLYRS1900": 71.0, "FLYRS1950": 47.0, "FLYRS1990": 17.0 }, "geometry": { "type": "Point", "coordinates": [ -111.94665830000001, 46.519099699999934 ] } },
{ "type": "Feature", "properties": { "STAID": "06062500", "STANAME": "Tenmile Creek near Rimini MT", "CLASS": "Non-ref", "AGGECOREGI": "WestMnts", "DRAIN_SQKM": 85.3542, "HUC02": "10U", "LAT_GAGE": 46.524099, "LNG_GAGE": -112.256956, "STATE": "MT", "HCDN_2009": null, "ACTIVE09": "yes", "FLYRS1900": 92.0, "FLYRS1950": 57.0, "FLYRS1990": 17.0 }, "geometry": { "type": "Point", "coordinates": [ -112.25695570000002, 46.524099159999963 ] } },
{ "type": "Feature", "properties": { "STAID": "06065500", "STANAME": "Missouri River bl Hauser Dam near Helena MT", "CLASS": "Non-ref", "AGGECOREGI": "WestMnts", "DRAIN_SQKM": 43324.43, "HUC02": "10U", "LAT_GAGE": 46.76605, "LNG_GAGE": -111.889713, "STATE": "MT", "HCDN_2009": null, "ACTIVE09": "yes", "FLYRS1900": 35.0, "FLYRS1950": 15.0, "FLYRS1990": 15.0 }, "geometry": { "type": "Point", "coordinates": [ -111.889713, 46.76605 ] } },
{ "type": "Feature", "properties": { "STAID": "06066500", "STANAME": "Missouri River bl Holter Dam nr Wolf Cr MT", "CLASS": "Non-ref", "AGGECOREGI": "WestMnts", "DRAIN_SQKM": 43985.17, "HUC02": "10U", "LAT_GAGE": 46.994665, "LNG_GAGE": -112.011111, "STATE": "MT", "HCDN_2009": null, "ACTIVE09": "yes", "FLYRS1900": 64.0, "FLYRS1950": 60.0, "FLYRS1990": 20.0 }, "geometry": { "type": "Point", "coordinates": [ -112.011110800000012, 46.994665 ] } },
{ "type": "Feature", "properties": { "STAID": "06071300", "STANAME": "Little Prickly Pear Cr at Wolf Cr MT", "CLASS": "Non-ref", "AGGECOREGI": "WestMnts", "DRAIN_SQKM": 1011.456, "HUC02": "10U", "LAT_GAGE": 47.005221, "LNG_GAGE": -112.070281, "STATE": "MT", "HCDN_2009": null, "ACTIVE09": "yes", "FLYRS1900": 23.0, "FLYRS1950": 23.0, "FLYRS1990": 18.0 }, "geometry": { "type": "Point", "coordinates": [ -112.070281, 47.005220689999959 ] } },
{ "type": "Feature", "properties": { "STAID": "06073500", "STANAME": "Dearborn River near Craig MT", "CLASS": "Ref", "AGGECOREGI": "WestMnts", "DRAIN_SQKM": 834.5772, "HUC02": "10U", "LAT_GAGE": 47.199112, "LNG_GAGE": -112.096394, "STATE": "MT", "HCDN_2009": null, "ACTIVE09": "yes", "FLYRS1900": 40.0, "FLYRS1950": 36.0, "FLYRS1990": 16.0 }, "geometry": { "type": "Point", "coordinates": [ -112.096393800000016, 47.199112289982246 ] } },
{ "type": "Feature", "properties": { "STAID": "06076560", "STANAME": "Smith River bl Newlan Cr nr White Sulphur Springs", "CLASS": "Non-ref", "AGGECOREGI": "WestPlains", "DRAIN_SQKM": 1340.087, "HUC02": "10U", "LAT_GAGE": 46.59078, "LNG_GAGE": -111.058, "STATE": "MT", "HCDN_2009": null, "ACTIVE09": "yes", "FLYRS1900": 5.0, "FLYRS1950": 5.0, "FLYRS1990": 5.0 }, "geometry": { "type": "Point", "coordinates": [ -111.058, 46.59078 ] } },
{ "type": "Feature", "properties": { "STAID": "06076690", "STANAME": "Smith River near Ft Logan MT", "CLASS": "Non-ref", "AGGECOREGI": "WestPlains", "DRAIN_SQKM": 2188.805, "HUC02": "10U", "LAT_GAGE": 46.795782, "LNG_GAGE": -111.17884, "STATE": "MT", "HCDN_2009": null, "ACTIVE09": "yes", "FLYRS1900": 20.0, "FLYRS1950": 20.0, "FLYRS1990": 8.0 }, "geometry": { "type": "Point", "coordinates": [ -111.17884, 46.795782179999911 ] } },
{ "type": "Feature", "properties": { "STAID": "06077200", "STANAME": "Smith River bl Eagle Cr nr Fort Logan MT", "CLASS": "Non-ref", "AGGECOREGI": "WestPlains", "DRAIN_SQKM": 2816.497, "HUC02": "10U", "LAT_GAGE": 46.828005, "LNG_GAGE": -111.192174, "STATE": "MT", "HCDN_2009": null, "ACTIVE09": "yes", "FLYRS1900": 13.0, "FLYRS1950": 13.0, "FLYRS1990": 13.0 }, "geometry": { "type": "Point", "coordinates": [ -111.192174, 46.828005 ] } },
{ "type": "Feature", "properties": { "STAID": "06077500", "STANAME": "Smith River near Eden MT", "CLASS": "Non-ref", "AGGECOREGI": "WestPlains", "DRAIN_SQKM": 4112.525, "HUC02": "10U", "LAT_GAGE": 47.189119, "LNG_GAGE": -111.386352, "STATE": "MT", "HCDN_2009": null, "ACTIVE09": "yes", "FLYRS1900": 18.0, "FLYRS1950": 18.0, "FLYRS1990": 0.0 }, "geometry": { "type": "Point", "coordinates": [ -111.386352, 47.189118999982249 ] } },
{ "type": "Feature", "properties": { "STAID": "06078500", "STANAME": "North Fork Sun River near Augusta MT", "CLASS": "Ref", "AGGECOREGI": "WestMnts", "DRAIN_SQKM": 669.987, "HUC02": "10U", "LAT_GAGE": 47.64078, "LNG_GAGE": -112.86032, "STATE": "MT", "HCDN_2009": null, "ACTIVE09": "yes", "FLYRS1900": 24.0, "FLYRS1950": 19.0, "FLYRS1990": 0.0 }, "geometry": { "type": "Point", "coordinates": [ -112.86032, 47.64077999998338 ] } },
{ "type": "Feature", "properties": { "STAID": "06079000", "STANAME": "South Fork Sun River near Augusta MT", "CLASS": "Ref", "AGGECOREGI": "WestMnts", "DRAIN_SQKM": 651.0897, "HUC02": "10U", "LAT_GAGE": 47.628833, "LNG_GAGE": -112.860602, "STATE": "MT", "HCDN_2009": null, "ACTIVE09": "yes", "FLYRS1900": 1.0, "FLYRS1950": 0.0, "FLYRS1990": 0.0 }, "geometry": { "type": "Point", "coordinates": [ -112.860602, 47.628832999983317 ] } },
{ "type": "Feature", "properties": { "STAID": "06085800", "STANAME": "Sun River at Simms MT", "CLASS": "Non-ref", "AGGECOREGI": "WestMnts", "DRAIN_SQKM": 3356.749, "HUC02": "10U", "LAT_GAGE": 47.50245, "LNG_GAGE": -111.932494, "STATE": "MT", "HCDN_2009": null, "ACTIVE09": "yes", "FLYRS1900": 22.0, "FLYRS1950": 22.0, "FLYRS1990": 9.0 }, "geometry": { "type": "Point", "coordinates": [ -111.9324942, 47.502449999983043 ] } },
{ "type": "Feature", "properties": { "STAID": "06088300", "STANAME": "Muddy Creek near Vaughn MT", "CLASS": "Non-ref", "AGGECOREGI": "WestPlains", "DRAIN_SQKM": 573.8553, "HUC02": "10U", "LAT_GAGE": 47.624957, "LNG_GAGE": -111.635535, "STATE": "MT", "HCDN_2009": null, "ACTIVE09": null, "FLYRS1900": 27.0, "FLYRS1950": 27.0, "FLYRS1990": 8.0 }, "geometry": { "type": "Point", "coordinates": [ -111.635535200000021, 47.624956769983349 ] } },
{ "type": "Feature", "properties": { "STAID": "06088500", "STANAME": "Muddy Creek at Vaughn MT", "CLASS": "Non-ref", "AGGECOREGI": "WestPlains", "DRAIN_SQKM": 976.7511, "HUC02": "10U", "LAT_GAGE": 47.561069, "LNG_GAGE": -111.538307, "STATE": "MT", "HCDN_2009": null, "ACTIVE09": "yes", "FLYRS1900": 72.0, "FLYRS1950": 57.0, "FLYRS1990": 20.0 }, "geometry": { "type": "Point", "coordinates": [ -111.53830720000002, 47.561068889983176 ] } },
{ "type": "Feature", "properties": { "STAID": "06089000", "STANAME": "Sun River near Vaughn MT", "CLASS": "Non-ref", "AGGECOREGI": "WestPlains", "DRAIN_SQKM": 4889.671, "HUC02": "10U", "LAT_GAGE": 47.525736, "LNG_GAGE": -111.511842, "STATE": "MT", "HCDN_2009": null, "ACTIVE09": "yes", "FLYRS1900": 75.0, "FLYRS1950": 60.0, "FLYRS1990": 20.0 }, "geometry": { "type": "Point", "coordinates": [ -111.51184167000001, 47.525735559983083 ] } },
{ "type": "Feature", "properties": { "STAID": "06090500", "STANAME": "Belt Creek near Monarch MT", "CLASS": "Ref", "AGGECOREGI": "WestMnts", "DRAIN_SQKM": 918.7623, "HUC02": "10U", "LAT_GAGE": 47.207462, "LNG_GAGE": -110.926616, "STATE": "MT", "HCDN_2009": null, "ACTIVE09": null, "FLYRS1900": 31.0, "FLYRS1950": 31.0, "FLYRS1990": 0.0 }, "geometry": { "type": "Point", "coordinates": [ -110.926616400000015, 47.207461899982221 ] } },
{ "type": "Feature", "properties": { "STAID": "06091700", "STANAME": "Two Medicine River bl South Fork nr Browning MT", "CLASS": "Non-ref", "AGGECOREGI": "WestMnts", "DRAIN_SQKM": 643.374, "HUC02": "10U", "LAT_GAGE": 48.426636, "LNG_GAGE": -112.989801, "STATE": "MT", "HCDN_2009": null, "ACTIVE09": "yes", "FLYRS1900": 31.0, "FLYRS1950": 31.0, "FLYRS1990": 19.0 }, "geometry": { "type": "Point", "coordinates": [ -112.9898006, 48.426635799985348 ] } },
{ "type": "Feature", "properties": { "STAID": "06092000", "STANAME": "Two Medicine River near Browning MT", "CLASS": "Non-ref", "AGGECOREGI": "WestMnts", "DRAIN_SQKM": 831.0069, "HUC02": "10U", "LAT_GAGE": 48.471691, "LNG_GAGE": -112.804684, "STATE": "MT", "HCDN_2009": null, "ACTIVE09": null, "FLYRS1900": 43.0, "FLYRS1950": 26.0, "FLYRS1990": 0.0 }, "geometry": { "type": "Point", "coordinates": [ -112.804683610000012, 48.471690559985426 ] } },
{ "type": "Feature", "properties": { "STAID": "06092500", "STANAME": "Badger Creek near Browning MT", "CLASS": "Ref", "AGGECOREGI": "WestMnts", "DRAIN_SQKM": 342.0135, "HUC02": "10U", "LAT_GAGE": 48.346189, "LNG_GAGE": -112.841764, "STATE": "MT", "HCDN_2009": null, "ACTIVE09": null, "FLYRS1900": 22.0, "FLYRS1950": 22.0, "FLYRS1990": 0.0 }, "geometry": { "type": "Point", "coordinates": [ -112.841764, 48.346188999985166 ] } },
{ "type": "Feature", "properties": { "STAID": "06093200", "STANAME": "Badger Cr bl Four Horns Canal nr Browning MT", "CLASS": "Non-ref", "AGGECOREGI": "WestMnts", "DRAIN_SQKM": 396.8217, "HUC02": "10U", "LAT_GAGE": 48.369971, "LNG_GAGE": -112.802843, "STATE": "MT", "HCDN_2009": null, "ACTIVE09": "yes", "FLYRS1900": 35.0, "FLYRS1950": 35.0, "FLYRS1990": 19.0 }, "geometry": { "type": "Point", "coordinates": [ -112.802843300000021, 48.369971099985186 ] } },
{ "type": "Feature", "properties": { "STAID": "06098500", "STANAME": "Cut Bank Creek near Browning MT", "CLASS": "Non-ref", "AGGECOREGI": "WestMnts", "DRAIN_SQKM": 320.6358, "HUC02": "10U", "LAT_GAGE": 48.61664, "LNG_GAGE": -113.03592, "STATE": "MT", "HCDN_2009": null, "ACTIVE09": "yes", "FLYRS1900": 17.0, "FLYRS1950": 17.0, "FLYRS1990": 17.0 }, "geometry": { "type": "Point", "coordinates": [ -113.03592, 48.616639999985814 ] } },
{ "type": "Feature", "properties": { "STAID": "06099000", "STANAME": "Cut Bank Creek at Cut Bank MT", "CLASS": "Non-ref", "AGGECOREGI": "WestPlains", "DRAIN_SQKM": 2687.353, "HUC02": "10U", "LAT_GAGE": 48.633317, "LNG_GAGE": -112.346996, "STATE": "MT", "HCDN_2009": null, "ACTIVE09": null, "FLYRS1900": 63.0, "FLYRS1950": 47.0, "FLYRS1990": 17.0 }, "geometry": { "type": "Point", "coordinates": [ -112.3469964, 48.633316899985815 ] } },
{ "type": "Feature", "properties": { "STAID": "06099500", "STANAME": "Marias River near Shelby MT", "CLASS": "Non-ref", "AGGECOREGI": "WestPlains", "DRAIN_SQKM": 7087.621, "HUC02": "10U", "LAT_GAGE": 48.427205, "LNG_GAGE": -111.889744, "STATE": "MT", "HCDN_2009": null, "ACTIVE09": "yes", "FLYRS1900": 101.0, "FLYRS1950": 60.0, "FLYRS1990": 20.0 }, "geometry": { "type": "Point", "coordinates": [ -111.889744400000012, 48.427204999985314 ] } },
{ "type": "Feature", "properties": { "STAID": "06101500", "STANAME": "Marias River near Chester MT", "CLASS": "Non-ref", "AGGECOREGI": "WestPlains", "DRAIN_SQKM": 12552.96, "HUC02": "10U", "LAT_GAGE": 48.306371, "LNG_GAGE": -111.080528, "STATE": "MT", "HCDN_2009": null, "ACTIVE09": "yes", "FLYRS1900": 56.0, "FLYRS1950": 54.0, "FLYRS1990": 20.0 }, "geometry": { "type": "Point", "coordinates": [ -111.080528300000012, 48.306370799985075 ] } },
{ "type": "Feature", "properties": { "STAID": "06102050", "STANAME": "Marias River near Loma MT", "CLASS": "Non-ref", "AGGECOREGI": "WestPlains", "DRAIN_SQKM": 18168.79, "HUC02": "10U", "LAT_GAGE": 47.93303, "LNG_GAGE": -110.50938, "STATE": "MT", "HCDN_2009": null, "ACTIVE09": "yes", "FLYRS1900": 13.0, "FLYRS1950": 13.0, "FLYRS1990": 0.0 }, "geometry": { "type": "Point", "coordinates": [ -110.50938, 47.933029999984107 ] } },
{ "type": "Feature", "properties": { "STAID": "06102500", "STANAME": "Teton River bl South Fork nr Choteau MT", "CLASS": "Ref", "AGGECOREGI": "WestMnts", "DRAIN_SQKM": 286.6581, "HUC02": "10U", "LAT_GAGE": 47.883006, "LNG_GAGE": -112.611984, "STATE": "MT", "HCDN_2009": null, "ACTIVE09": "yes", "FLYRS1900": 7.0, "FLYRS1950": 5.0, "FLYRS1990": 0.0 }, "geometry": { "type": "Point", "coordinates": [ -112.611984, 47.883005999984064 ] } },
{ "type": "Feature", "properties": { "STAID": "06108000", "STANAME": "Teton River near Dutton MT", "CLASS": "Non-ref", "AGGECOREGI": "WestPlains", "DRAIN_SQKM": 3229.337, "HUC02": "10U", "LAT_GAGE": 47.930241, "LNG_GAGE": -111.552764, "STATE": "MT", "HCDN_2009": null, "ACTIVE09": "yes", "FLYRS1900": 55.0, "FLYRS1950": 55.0, "FLYRS1990": 20.0 }, "geometry": { "type": "Point", "coordinates": [ -111.552763600000034, 47.930240799984155 ] } },
{ "type": "Feature", "properties": { "STAID": "06108800", "STANAME": "Teton River at Loma MT", "CLASS": "Non-ref", "AGGECOREGI": "WestPlains", "DRAIN_SQKM": 4931.603, "HUC02": "10U", "LAT_GAGE": 47.932472, "LNG_GAGE": -110.514379, "STATE": "MT", "HCDN_2009": null, "ACTIVE09": "yes", "FLYRS1900": 9.0, "FLYRS1950": 9.0, "FLYRS1990": 9.0 }, "geometry": { "type": "Point", "coordinates": [ -110.514379, 47.932471999984159 ] } },
{ "type": "Feature", "properties": { "STAID": "06109800", "STANAME": "South Fork Judith River near Utica MT", "CLASS": "Ref", "AGGECOREGI": "WestMnts", "DRAIN_SQKM": 129.6774, "HUC02": "10U", "LAT_GAGE": 46.753564, "LNG_GAGE": -110.323252, "STATE": "MT", "HCDN_2009": null, "ACTIVE09": null, "FLYRS1900": 21.0, "FLYRS1950": 21.0, "FLYRS1990": 0.0 }, "geometry": { "type": "Point", "coordinates": [ -110.323252200000013, 46.753563599999936 ] } },
{ "type": "Feature", "properties": { "STAID": "06110000", "STANAME": "Judith River near Utica MT", "CLASS": "Non-ref", "AGGECOREGI": "WestMnts", "DRAIN_SQKM": 807.7986, "HUC02": "10U", "LAT_GAGE": 46.891626, "LNG_GAGE": -110.232423, "STATE": "MT", "HCDN_2009": null, "ACTIVE09": null, "FLYRS1900": 56.0, "FLYRS1950": 26.0, "FLYRS1990": 0.0 }, "geometry": { "type": "Point", "coordinates": [ -110.232423200000014, 46.891625579999932 ] } },
{ "type": "Feature", "properties": { "STAID": "06114700", "STANAME": "Judith River nr mouth, nr Winifred MT", "CLASS": "Non-ref", "AGGECOREGI": "WestPlains", "DRAIN_SQKM": 7107.366, "HUC02": "10U", "LAT_GAGE": 47.668315, "LNG_GAGE": -109.653244, "STATE": "MT", "HCDN_2009": null, "ACTIVE09": "yes", "FLYRS1900": 6.0, "FLYRS1950": 6.0, "FLYRS1990": 6.0 }, "geometry": { "type": "Point", "coordinates": [ -109.653244, 47.668314999983515 ] } },
{ "type": "Feature", "properties": { "STAID": "06115500", "STANAME": "North Fork Musselshell River nr Delpine MT", "CLASS": "Ref", "AGGECOREGI": "WestMnts", "DRAIN_SQKM": 97.5114, "HUC02": "10U", "LAT_GAGE": 46.609952, "LNG_GAGE": -110.575757, "STATE": "MT", "HCDN_2009": null, "ACTIVE09": null, "FLYRS1900": 36.0, "FLYRS1950": 27.0, "FLYRS1990": 0.0 }, "geometry": { "type": "Point", "coordinates": [ -110.575756500000011, 46.609951699999932 ] } },
{ "type": "Feature", "properties": { "STAID": "06118500", "STANAME": "South Fork Musselshell R ab Martinsdale MT", "CLASS": "Non-ref", "AGGECOREGI": "WestPlains", "DRAIN_SQKM": 704.5281, "HUC02": "10U", "LAT_GAGE": 46.453281, "LNG_GAGE": -110.382136, "STATE": "MT", "HCDN_2009": null, "ACTIVE09": null, "FLYRS1900": 38.0, "FLYRS1950": 30.0, "FLYRS1990": 0.0 }, "geometry": { "type": "Point", "coordinates": [ -110.382136100000011, 46.453280859999936 ] } },
{ "type": "Feature", "properties": { "STAID": "06119600", "STANAME": "Musselshell River nr Martinsdale, MT", "CLASS": "Non-ref", "AGGECOREGI": "WestPlains", "DRAIN_SQKM": 1388.708, "HUC02": "10U", "LAT_GAGE": 46.476893, "LNG_GAGE": -110.249077, "STATE": "MT", "HCDN_2009": null, "ACTIVE09": "yes", "FLYRS1900": 0.0, "FLYRS1950": 0.0, "FLYRS1990": 0.0 }, "geometry": { "type": "Point", "coordinates": [ -110.249077, 46.476893 ] } },
{ "type": "Feature", "properties": { "STAID": "06120500", "STANAME": "Musselshell River at Harlowton MT", "CLASS": "Non-ref", "AGGECOREGI": "WestPlains", "DRAIN_SQKM": 2872.268, "HUC02": "10U", "LAT_GAGE": 46.429956, "LNG_GAGE": -109.840739, "STATE": "MT", "HCDN_2009": null, "ACTIVE09": "yes", "FLYRS1900": 98.0, "FLYRS1950": 59.0, "FLYRS1990": 19.0 }, "geometry": { "type": "Point", "coordinates": [ -109.840738900000019, 46.429956389999951 ] } },
{ "type": "Feature", "properties": { "STAID": "06123030", "STANAME": "Musselshell River ab Mud Cr nr Shawmut MT", "CLASS": "Non-ref", "AGGECOREGI": "WestPlains", "DRAIN_SQKM": 3882.837, "HUC02": "10U", "LAT_GAGE": 46.318569, "LNG_GAGE": -109.460456, "STATE": "MT", "HCDN_2009": null, "ACTIVE09": "yes", "FLYRS1900": 0.0, "FLYRS1950": 0.0, "FLYRS1990": 0.0 }, "geometry": { "type": "Point", "coordinates": [ -109.460456, 46.318569 ] } },
{ "type": "Feature", "properties": { "STAID": "06123500", "STANAME": "Musselshell River near Ryegate MT", "CLASS": "Non-ref", "AGGECOREGI": "WestPlains", "DRAIN_SQKM": 5075.482, "HUC02": "10U", "LAT_GAGE": 46.308397, "LNG_GAGE": -109.191405, "STATE": "MT", "HCDN_2009": null, "ACTIVE09": null, "FLYRS1900": 33.0, "FLYRS1950": 30.0, "FLYRS1990": 0.0 }, "geometry": { "type": "Point", "coordinates": [ -109.191404700000021, 46.308396499999944 ] } },
{ "type": "Feature", "properties": { "STAID": "06126050", "STANAME": "Musselshell River near Lavina MT", "CLASS": "Non-ref", "AGGECOREGI": "WestPlains", "DRAIN_SQKM": 7635.111, "HUC02": "10U", "LAT_GAGE": 46.292736, "LNG_GAGE": -108.892655, "STATE": "MT", "HCDN_2009": null, "ACTIVE09": "yes", "FLYRS1900": 0.0, "FLYRS1950": 0.0, "FLYRS1990": 0.0 }, "geometry": { "type": "Point", "coordinates": [ -108.892655, 46.292736 ] } },
{ "type": "Feature", "properties": { "STAID": "06126500", "STANAME": "Musselshell River near Roundup MT", "CLASS": "Non-ref", "AGGECOREGI": "WestPlains", "DRAIN_SQKM": 10321.4, "HUC02": "10U", "LAT_GAGE": 46.428019, "LNG_GAGE": -108.572635, "STATE": "MT", "HCDN_2009": null, "ACTIVE09": "yes", "FLYRS1900": 63.0, "FLYRS1950": 60.0, "FLYRS1990": 20.0 }, "geometry": { "type": "Point", "coordinates": [ -108.572635300000016, 46.428019169999963 ] } },
{ "type": "Feature", "properties": { "STAID": "06127500", "STANAME": "Musselshell River at Musselshell MT", "CLASS": "Non-ref", "AGGECOREGI": "WestPlains", "DRAIN_SQKM": 11743.45, "HUC02": "10U", "LAT_GAGE": 46.523031, "LNG_GAGE": -108.109002, "STATE": "MT", "HCDN_2009": null, "ACTIVE09": "yes", "FLYRS1900": 37.0, "FLYRS1950": 31.0, "FLYRS1990": 0.0 }, "geometry": { "type": "Point", "coordinates": [ -108.10900220000002, 46.523030859999906 ] } },
{ "type": "Feature", "properties": { "STAID": "06130500", "STANAME": "Musselshell River at Mosby MT", "CLASS": "Non-ref", "AGGECOREGI": "WestPlains", "DRAIN_SQKM": 20254.34, "HUC02": "10U", "LAT_GAGE": 46.99471, "LNG_GAGE": -107.889, "STATE": "MT", "HCDN_2009": null, "ACTIVE09": "yes", "FLYRS1900": 77.0, "FLYRS1950": 60.0, "FLYRS1990": 20.0 }, "geometry": { "type": "Point", "coordinates": [ -107.889, 46.99471 ] } },
{ "type": "Feature", "properties": { "STAID": "06131000", "STANAME": "Big Dry Creek near Van Norman MT", "CLASS": "Ref", "AGGECOREGI": "WestPlains", "DRAIN_SQKM": 6609.769, "HUC02": "10U", "LAT_GAGE": 47.349443, "LNG_GAGE": -106.357814, "STATE": "MT", "HCDN_2009": null, "ACTIVE09": null, "FLYRS1900": 63.0, "FLYRS1950": 55.0, "FLYRS1990": 17.0 }, "geometry": { "type": "Point", "coordinates": [ -106.357813900000011, 47.349442779982624 ] } },
{ "type": "Feature", "properties": { "STAID": "06131200", "STANAME": "Nelson Creek near Van Norman MT", "CLASS": "Non-ref", "AGGECOREGI": "WestPlains", "DRAIN_SQKM": 283.1463, "HUC02": "10U", "LAT_GAGE": 47.535558, "LNG_GAGE": -106.153636, "STATE": "MT", "HCDN_2009": null, "ACTIVE09": "yes", "FLYRS1900": 17.0, "FLYRS1950": 17.0, "FLYRS1990": 7.0 }, "geometry": { "type": "Point", "coordinates": [ -106.153636, 47.535557999983162 ] } },
{ "type": "Feature", "properties": { "STAID": "06132200", "STANAME": "South Fork Milk River near Babb MT", "CLASS": "Non-ref", "AGGECOREGI": "WestPlains", "DRAIN_SQKM": 180.6921, "HUC02": "10U", "LAT_GAGE": 48.75387, "LNG_GAGE": -113.1676, "STATE": "MT", "HCDN_2009": null, "ACTIVE09": "yes", "FLYRS1900": 0.0, "FLYRS1950": 0.0, "FLYRS1990": 0.0 }, "geometry": { "type": "Point", "coordinates": [ -113.1676, 48.753869999986073 ] } },
{ "type": "Feature", "properties": { "STAID": "06133500", "STANAME": "N F Milk River ab St. Mary canal nr Browning MT", "CLASS": "Non-ref", "AGGECOREGI": "WestPlains", "DRAIN_SQKM": 157.2885, "HUC02": "10U", "LAT_GAGE": 48.97082, "LNG_GAGE": -113.05704, "STATE": "MT", "HCDN_2009": null, "ACTIVE09": "yes", "FLYRS1900": 0.0, "FLYRS1950": 0.0, "FLYRS1990": 0.0 }, "geometry": { "type": "Point", "coordinates": [ -113.05704, 48.970819999986574 ] } },
{ "type": "Feature", "properties": { "STAID": "06137400", "STANAME": "Big Sandy Cr at Res Bndry nr Rocky Boy MT", "CLASS": "Ref", "AGGECOREGI": "WestMnts", "DRAIN_SQKM": 63.5409, "HUC02": "10U", "LAT_GAGE": 48.172485, "LNG_GAGE": -109.826034, "STATE": "MT", "HCDN_2009": null, "ACTIVE09": null, "FLYRS1900": 24.0, "FLYRS1950": 24.0, "FLYRS1990": 17.0 }, "geometry": { "type": "Point", "coordinates": [ -109.8260342, 48.172484999984754 ] } },
{ "type": "Feature", "properties": { "STAID": "06137570", "STANAME": "Boxelder Creek near Rocky Boy MT", "CLASS": "Ref", "AGGECOREGI": "WestMnts", "DRAIN_SQKM": 125.2719, "HUC02": "10U", "LAT_GAGE": 48.301933, "LNG_GAGE": -109.84437, "STATE": "MT", "HCDN_2009": null, "ACTIVE09": null, "FLYRS1900": 22.0, "FLYRS1950": 22.0, "FLYRS1990": 8.0 }, "geometry": { "type": "Point", "coordinates": [ -109.8443703, 48.301933059985039 ] } },
{ "type": "Feature", "properties": { "STAID": "06139500", "STANAME": "Big Sandy Creek near Havre MT", "CLASS": "Non-ref", "AGGECOREGI": "WestPlains", "DRAIN_SQKM": 4640.425, "HUC02": "10U", "LAT_GAGE": 48.526663, "LNG_GAGE": -109.841595, "STATE": "MT", "HCDN_2009": null, "ACTIVE09": "yes", "FLYRS1900": 7.0, "FLYRS1950": 4.0, "FLYRS1990": 0.0 }, "geometry": { "type": "Point", "coordinates": [ -109.841595, 48.526662999985575 ] } },
{ "type": "Feature", "properties": { "STAID": "06142400", "STANAME": "Clear Creek near Chinook MT", "CLASS": "Non-ref", "AGGECOREGI": "WestPlains", "DRAIN_SQKM": 348.5907, "HUC02": "10U", "LAT_GAGE": 48.578889, "LNG_GAGE": -109.391294, "STATE": "MT", "HCDN_2009": null, "ACTIVE09": "yes", "FLYRS1900": 0.0, "FLYRS1950": 0.0, "FLYRS1990": 0.0 }, "geometry": { "type": "Point", "coordinates": [ -109.391294, 48.578888999985693 ] } },
{ "type": "Feature", "properties": { "STAID": "06154400", "STANAME": "Peoples Creek near Hays MT", "CLASS": "Non-ref", "AGGECOREGI": "WestPlains", "DRAIN_SQKM": 580.815, "HUC02": "10U", "LAT_GAGE": 48.223605, "LNG_GAGE": -108.714046, "STATE": "MT", "HCDN_2009": null, "ACTIVE09": "yes", "FLYRS1900": 42.0, "FLYRS1950": 42.0, "FLYRS1990": 20.0 }, "geometry": { "type": "Point", "coordinates": [ -108.7140458, 48.223605279984838 ] } },
{ "type": "Feature", "properties": { "STAID": "06154410", "STANAME": "Little Peoples Creek near Hays MT", "CLASS": "Ref", "AGGECOREGI": "WestMnts", "DRAIN_SQKM": 33.4053, "HUC02": "10U", "LAT_GAGE": 47.966104, "LNG_GAGE": -108.66071, "STATE": "MT", "HCDN_2009": "yes", "ACTIVE09": "yes", "FLYRS1900": 37.0, "FLYRS1950": 37.0, "FLYRS1990": 20.0 }, "geometry": { "type": "Point", "coordinates": [ -108.660710300000019, 47.966104399984204 ] } },
{ "type": "Feature", "properties": { "STAID": "06154550", "STANAME": "Peoples Cr bl Kuhr Coulee nr Dodson MT", "CLASS": "Non-ref", "AGGECOREGI": "WestPlains", "DRAIN_SQKM": 1795.253, "HUC02": "10U", "LAT_GAGE": 48.363609, "LNG_GAGE": -108.35625, "STATE": "MT", "HCDN_2009": null, "ACTIVE09": "yes", "FLYRS1900": 50.0, "FLYRS1950": 50.0, "FLYRS1990": 20.0 }, "geometry": { "type": "Point", "coordinates": [ -108.356249700000021, 48.363608599985199 ] } },
{ "type": "Feature", "properties": { "STAID": "06166000", "STANAME": "Beaver Cr bl Guston Coulee nr Saco MT", "CLASS": "Non-ref", "AGGECOREGI": "WestPlains", "DRAIN_SQKM": 3077.95, "HUC02": "10U", "LAT_GAGE": 48.356663, "LNG_GAGE": -107.583159, "STATE": "MT", "HCDN_2009": null, "ACTIVE09": "yes", "FLYRS1900": 1.0, "FLYRS1950": 0.0, "FLYRS1990": 0.0 }, "geometry": { "type": "Point", "coordinates": [ -107.583159, 48.356662999985154 ] } },
{ "type": "Feature", "properties": { "STAID": "06167500", "STANAME": "Beaver Creek near Hinsdale MT", "CLASS": "Non-ref", "AGGECOREGI": "WestPlains", "DRAIN_SQKM": 4583.865, "HUC02": "10U", "LAT_GAGE": 48.420317, "LNG_GAGE": -107.17177, "STATE": "MT", "HCDN_2009": null, "ACTIVE09": "yes", "FLYRS1900": 1.0, "FLYRS1950": 0.0, "FLYRS1990": 0.0 }, "geometry": { "type": "Point", "coordinates": [ -107.17177, 48.420316999985332 ] } },
{ "type": "Feature", "properties": { "STAID": "06174000", "STANAME": "Willow Creek near Glasgow MT", "CLASS": "Non-ref", "AGGECOREGI": "WestPlains", "DRAIN_SQKM": 1369.903, "HUC02": "10U", "LAT_GAGE": 48.114462, "LNG_GAGE": -106.671438, "STATE": "MT", "HCDN_2009": null, "ACTIVE09": null, "FLYRS1900": 34.0, "FLYRS1950": 34.0, "FLYRS1990": 0.0 }, "geometry": { "type": "Point", "coordinates": [ -106.671438, 48.114461899984562 ] } },
{ "type": "Feature", "properties": { "STAID": "06177500", "STANAME": "REDWATER RIVER AT CIRCLE MT", "CLASS": "Non-ref", "AGGECOREGI": "WestPlains", "DRAIN_SQKM": 1425.403, "HUC02": "10U", "LAT_GAGE": 47.414175, "LNG_GAGE": -105.575555, "STATE": "MT", "HCDN_2009": null, "ACTIVE09": null, "FLYRS1900": 66.0, "FLYRS1950": 52.0, "FLYRS1990": 15.0 }, "geometry": { "type": "Point", "coordinates": [ -105.575554700000012, 47.414174999982784 ] } },
{ "type": "Feature", "properties": { "STAID": "06183750", "STANAME": "Lake Creek near Dagmar MT", "CLASS": "Non-ref", "AGGECOREGI": "WestPlains", "DRAIN_SQKM": 250.5159, "HUC02": "10U", "LAT_GAGE": 48.56419, "LNG_GAGE": -104.17772, "STATE": "MT", "HCDN_2009": null, "ACTIVE09": "yes", "FLYRS1900": 1.0, "FLYRS1950": 1.0, "FLYRS1990": 0.0 }, "geometry": { "type": "Point", "coordinates": [ -104.17772, 48.564189999985651 ] } },
{ "type": "Feature", "properties": { "STAID": "06183800", "STANAME": "Cottonwood Creek near Dagmar MT", "CLASS": "Ref", "AGGECOREGI": "WestPlains", "DRAIN_SQKM": 326.5461, "HUC02": "10U", "LAT_GAGE": 48.509747, "LNG_GAGE": -104.173552, "STATE": "MT", "HCDN_2009": null, "ACTIVE09": "yes", "FLYRS1900": 0.0, "FLYRS1950": 0.0, "FLYRS1990": 0.0 }, "geometry": { "type": "Point", "coordinates": [ -104.173552, 48.509746999985502 ] } },
{ "type": "Feature", "properties": { "STAID": "06183850", "STANAME": "Sand Creek near Dagmar MT", "CLASS": "Ref", "AGGECOREGI": "WestPlains", "DRAIN_SQKM": 309.9987, "HUC02": "10U", "LAT_GAGE": 48.493914, "LNG_GAGE": -104.273556, "STATE": "MT", "HCDN_2009": null, "ACTIVE09": "yes", "FLYRS1900": 0.0, "FLYRS1950": 0.0, "FLYRS1990": 0.0 }, "geometry": { "type": "Point", "coordinates": [ -104.273556, 48.49391399998548 ] } },
{ "type": "Feature", "properties": { "STAID": "06186500", "STANAME": "Yellowstone River at Yellowstone Lk Outlet YNP", "CLASS": "Non-ref", "AGGECOREGI": "WestMnts", "DRAIN_SQKM": 2567.444, "HUC02": "10U", "LAT_GAGE": 44.567441, "LNG_GAGE": -110.380756, "STATE": "WY", "HCDN_2009": null, "ACTIVE09": "yes", "FLYRS1900": 80.0, "FLYRS1950": 57.0, "FLYRS1990": 20.0 }, "geometry": { "type": "Point", "coordinates": [ -110.380755600000015, 44.567441389999892 ] } },
{ "type": "Feature", "properties": { "STAID": "06187915", "STANAME": "Soda Butte Cr at Park Bndry at Silver Gate", "CLASS": "Ref", "AGGECOREGI": "WestMnts", "DRAIN_SQKM": 73.07706, "HUC02": "10U", "LAT_GAGE": 45.002995, "LNG_GAGE": -110.001851, "STATE": "MT", "HCDN_2009": null, "ACTIVE09": "yes", "FLYRS1900": 11.0, "FLYRS1950": 11.0, "FLYRS1990": 11.0 }, "geometry": { "type": "Point", "coordinates": [ -110.001851, 45.002995 ] } },
{ "type": "Feature", "properties": { "STAID": "06187950", "STANAME": "Soda Butte Cr nr Lamar Ranger Station YNP", "CLASS": "Ref", "AGGECOREGI": "WestMnts", "DRAIN_SQKM": 261.2187, "HUC02": "10U", "LAT_GAGE": 44.868273, "LNG_GAGE": -110.165469, "STATE": "WY", "HCDN_2009": null, "ACTIVE09": "yes", "FLYRS1900": 20.0, "FLYRS1950": 20.0, "FLYRS1990": 19.0 }, "geometry": { "type": "Point", "coordinates": [ -110.165469, 44.868273 ] } },
{ "type": "Feature", "properties": { "STAID": "06188000", "STANAME": "LAMAR RIVER NR TOWER FALLS RANGER STATION, YNP", "CLASS": "Ref", "AGGECOREGI": "WestMnts", "DRAIN_SQKM": 1730.28, "HUC02": "10U", "LAT_GAGE": 44.927716, "LNG_GAGE": -110.39381, "STATE": "WY", "HCDN_2009": "yes", "ACTIVE09": "yes", "FLYRS1900": 67.0, "FLYRS1950": 41.0, "FLYRS1990": 20.0 }, "geometry": { "type": "Point", "coordinates": [ -110.393809870000013, 44.92771566999987 ] } },
{ "type": "Feature", "properties": { "STAID": "06190540", "STANAME": "Boiling River at Mammoth,YNP", "CLASS": "Ref", "AGGECOREGI": "WestMnts", "DRAIN_SQKM": 511.5537, "HUC02": "10U", "LAT_GAGE": 44.985213, "LNG_GAGE": -110.689099, "STATE": "WY", "HCDN_2009": null, "ACTIVE09": "yes", "FLYRS1900": 14.0, "FLYRS1950": 14.0, "FLYRS1990": 13.0 }, "geometry": { "type": "Point", "coordinates": [ -110.689099, 44.985213 ] } },
{ "type": "Feature", "properties": { "STAID": "06191000", "STANAME": "Gardner River near Mammoth YNP", "CLASS": "Ref", "AGGECOREGI": "WestMnts", "DRAIN_SQKM": 513.8847, "HUC02": "10U", "LAT_GAGE": 44.992436, "LNG_GAGE": -110.691321, "STATE": "MT", "HCDN_2009": "yes", "ACTIVE09": "yes", "FLYRS1900": 59.0, "FLYRS1950": 48.0, "FLYRS1990": 20.0 }, "geometry": { "type": "Point", "coordinates": [ -110.69132110000001, 44.992435559999933 ] } },
{ "type": "Feature", "properties": { "STAID": "06191500", "STANAME": "Yellowstone River at Corwin Springs MT", "CLASS": "Ref", "AGGECOREGI": "WestMnts", "DRAIN_SQKM": 6783.593, "HUC02": "10U", "LAT_GAGE": 45.11188, "LNG_GAGE": -110.794381, "STATE": "MT", "HCDN_2009": "yes", "ACTIVE09": "yes", "FLYRS1900": 99.0, "FLYRS1950": 60.0, "FLYRS1990": 20.0 }, "geometry": { "type": "Point", "coordinates": [ -110.79438140000002, 45.111879699999974 ] } },
{ "type": "Feature", "properties": { "STAID": "06192500", "STANAME": "Yellowstone River near Livingston MT", "CLASS": "Non-ref", "AGGECOREGI": "WestMnts", "DRAIN_SQKM": 9208.975, "HUC02": "10U", "LAT_GAGE": 45.597158, "LNG_GAGE": -110.566039, "STATE": "MT", "HCDN_2009": null, "ACTIVE09": "yes", "FLYRS1900": 82.0, "FLYRS1950": 60.0, "FLYRS1990": 20.0 }, "geometry": { "type": "Point", "coordinates": [ -110.5660394, 45.597158059999899 ] } },
{ "type": "Feature", "properties": { "STAID": "06195600", "STANAME": "Shields River nr Livingston MT", "CLASS": "Non-ref", "AGGECOREGI": "WestPlains", "DRAIN_SQKM": 2187.574, "HUC02": "10U", "LAT_GAGE": 45.738269, "LNG_GAGE": -110.479925, "STATE": "MT", "HCDN_2009": null, "ACTIVE09": "yes", "FLYRS1900": 31.0, "FLYRS1950": 31.0, "FLYRS1990": 20.0 }, "geometry": { "type": "Point", "coordinates": [ -110.479925300000019, 45.738268599999941 ] } },
{ "type": "Feature", "properties": { "STAID": "06197500", "STANAME": "Boulder River near Contact MT", "CLASS": "Ref", "AGGECOREGI": "WestMnts", "DRAIN_SQKM": 582.9795, "HUC02": "10U", "LAT_GAGE": 45.554659, "LNG_GAGE": -110.200746, "STATE": "MT", "HCDN_2009": null, "ACTIVE09": null, "FLYRS1900": 27.0, "FLYRS1950": 25.0, "FLYRS1990": 0.0 }, "geometry": { "type": "Point", "coordinates": [ -110.200745800000021, 45.5546588 ] } },
{ "type": "Feature", "properties": { "STAID": "06200000", "STANAME": "Boulder River at Big Timber MT", "CLASS": "Non-ref", "AGGECOREGI": "WestMnts", "DRAIN_SQKM": 1363.8, "HUC02": "10U", "LAT_GAGE": 45.834106, "LNG_GAGE": -109.938798, "STATE": "MT", "HCDN_2009": null, "ACTIVE09": "yes", "FLYRS1900": 60.0, "FLYRS1950": 58.0, "FLYRS1990": 20.0 }, "geometry": { "type": "Point", "coordinates": [ -109.938797800000017, 45.834106099999907 ] } },
{ "type": "Feature", "properties": { "STAID": "06200500", "STANAME": "Sweet Grass Creek above Melville MT", "CLASS": "Non-ref", "AGGECOREGI": "WestMnts", "DRAIN_SQKM": 170.7183, "HUC02": "10U", "LAT_GAGE": 46.154116, "LNG_GAGE": -110.088243, "STATE": "MT", "HCDN_2009": null, "ACTIVE09": null, "FLYRS1900": 43.0, "FLYRS1950": 20.0, "FLYRS1990": 0.0 }, "geometry": { "type": "Point", "coordinates": [ -110.088243, 46.154116099999953 ] } },
{ "type": "Feature", "properties": { "STAID": "06204050", "STANAME": "West Rosebud Creek near Roscoe MT", "CLASS": "Non-ref", "AGGECOREGI": "WestMnts", "DRAIN_SQKM": 137.3634, "HUC02": "10U", "LAT_GAGE": 45.242998, "LNG_GAGE": -109.731284, "STATE": "MT", "HCDN_2009": null, "ACTIVE09": "yes", "FLYRS1900": 44.0, "FLYRS1950": 44.0, "FLYRS1990": 20.0 }, "geometry": { "type": "Point", "coordinates": [ -109.731284400000021, 45.242998299999897 ] } },
{ "type": "Feature", "properties": { "STAID": "06204070", "STANAME": "W Rosebud Cr at Emerald Lk Campground nr Roscoe", "CLASS": "Non-ref", "AGGECOREGI": "WestMnts", "DRAIN_SQKM": 171.9954, "HUC02": "10U", "LAT_GAGE": 45.254387, "LNG_GAGE": -109.699895, "STATE": "MT", "HCDN_2009": null, "ACTIVE09": "yes", "FLYRS1900": 3.0, "FLYRS1950": 3.0, "FLYRS1990": 3.0 }, "geometry": { "type": "Point", "coordinates": [ -109.699895, 45.254387 ] } },
{ "type": "Feature", "properties": { "STAID": "06204500", "STANAME": "Rosebud Creek near Absarokee MT", "CLASS": "Non-ref", "AGGECOREGI": "WestMnts", "DRAIN_SQKM": 1024.663, "HUC02": "10U", "LAT_GAGE": 45.48661, "LNG_GAGE": -109.456, "STATE": "MT", "HCDN_2009": null, "ACTIVE09": null, "FLYRS1900": 34.0, "FLYRS1950": 20.0, "FLYRS1990": 0.0 }, "geometry": { "type": "Point", "coordinates": [ -109.455999800000015, 45.486609599999966 ] } },
{ "type": "Feature", "properties": { "STAID": "06205000", "STANAME": "Stillwater River near Absarokee MT", "CLASS": "Non-ref", "AGGECOREGI": "WestMnts", "DRAIN_SQKM": 2535.737, "HUC02": "10U", "LAT_GAGE": 45.551053, "LNG_GAGE": -109.387388, "STATE": "MT", "HCDN_2009": null, "ACTIVE09": "yes", "FLYRS1900": 70.0, "FLYRS1950": 55.0, "FLYRS1990": 15.0 }, "geometry": { "type": "Point", "coordinates": [ -109.387387500000017, 45.551053399999937 ] } },
{ "type": "Feature", "properties": { "STAID": "06206500", "STANAME": "SUNLIGHT CREEK NEAR PAINTER, WYO.", "CLASS": "Ref", "AGGECOREGI": "WestMnts", "DRAIN_SQKM": 354.3687, "HUC02": "10U", "LAT_GAGE": 44.749947, "LNG_GAGE": -109.506277, "STATE": "WY", "HCDN_2009": null, "ACTIVE09": null, "FLYRS1900": 29.0, "FLYRS1950": 22.0, "FLYRS1990": 0.0 }, "geometry": { "type": "Point", "coordinates": [ -109.506277030000021, 44.749947079999892 ] } },
{ "type": "Feature", "properties": { "STAID": "06207500", "STANAME": "Clarks Fork Yellowstone River nr Belfry MT", "CLASS": "Non-ref", "AGGECOREGI": "WestMnts", "DRAIN_SQKM": 2985.022, "HUC02": "10U", "LAT_GAGE": 45.010225, "LNG_GAGE": -109.065422, "STATE": "MT", "HCDN_2009": null, "ACTIVE09": "yes", "FLYRS1900": 88.0, "FLYRS1950": 60.0, "FLYRS1990": 20.0 }, "geometry": { "type": "Point", "coordinates": [ -109.065421900000018, 45.010225 ] } },
{ "type": "Feature", "properties": { "STAID": "06208500", "STANAME": "Clarks Fork Yellowstone River at Edgar MT", "CLASS": "Non-ref", "AGGECOREGI": "WestMnts", "DRAIN_SQKM": 5237.808, "HUC02": "10U", "LAT_GAGE": 45.466059, "LNG_GAGE": -108.843755, "STATE": "MT", "HCDN_2009": null, "ACTIVE09": "yes", "FLYRS1900": 71.0, "FLYRS1950": 43.0, "FLYRS1990": 20.0 }, "geometry": { "type": "Point", "coordinates": [ -108.843754700000019, 45.466059169999959 ] } },
{ "type": "Feature", "properties": { "STAID": "06209500", "STANAME": "Rock Creek near Red Lodge MT", "CLASS": "Ref", "AGGECOREGI": "WestMnts", "DRAIN_SQKM": 272.6757, "HUC02": "10U", "LAT_GAGE": 45.086092, "LNG_GAGE": -109.329901, "STATE": "MT", "HCDN_2009": null, "ACTIVE09": "yes", "FLYRS1900": 58.0, "FLYRS1950": 43.0, "FLYRS1990": 9.0 }, "geometry": { "type": "Point", "coordinates": [ -109.329900830000014, 45.086092219999941 ] } },
{ "type": "Feature", "properties": { "STAID": "06211000", "STANAME": "Red Lodge Cr ab Cooney Re nr Boyd MT", "CLASS": "Non-ref", "AGGECOREGI": "WestPlains", "DRAIN_SQKM": 367.5033, "HUC02": "10U", "LAT_GAGE": 45.437722, "LNG_GAGE": -109.25377, "STATE": "MT", "HCDN_2009": null, "ACTIVE09": "yes", "FLYRS1900": 2.0, "FLYRS1950": 2.0, "FLYRS1990": 0.0 }, "geometry": { "type": "Point", "coordinates": [ -109.25377, 45.437721999999887 ] } },
{ "type": "Feature", "properties": { "STAID": "06211500", "STANAME": "Willow Creek near Boyd MT", "CLASS": "Non-ref", "AGGECOREGI": "WestPlains", "DRAIN_SQKM": 127.5804, "HUC02": "10U", "LAT_GAGE": 45.422167, "LNG_GAGE": -109.230436, "STATE": "MT", "HCDN_2009": null, "ACTIVE09": "yes", "FLYRS1900": 2.0, "FLYRS1950": 2.0, "FLYRS1990": 0.0 }, "geometry": { "type": "Point", "coordinates": [ -109.230436, 45.422167 ] } },
{ "type": "Feature", "properties": { "STAID": "06212500", "STANAME": "Red Lodge Cr bl Cooney Reservoir nr Boyd MT", "CLASS": "Non-ref", "AGGECOREGI": "WestPlains", "DRAIN_SQKM": 530.379, "HUC02": "10U", "LAT_GAGE": 45.449667, "LNG_GAGE": -109.185712, "STATE": "MT", "HCDN_2009": null, "ACTIVE09": null, "FLYRS1900": 62.0, "FLYRS1950": 50.0, "FLYRS1990": 10.0 }, "geometry": { "type": "Point", "coordinates": [ -109.185712200000012, 45.449667 ] } },
{ "type": "Feature", "properties": { "STAID": "06214500", "STANAME": "Yellowstone River at Billings MT", "CLASS": "Non-ref", "AGGECOREGI": "WestMnts", "DRAIN_SQKM": 29548.79, "HUC02": "10U", "LAT_GAGE": 45.799953, "LNG_GAGE": -108.467356, "STATE": "MT", "HCDN_2009": null, "ACTIVE09": "yes", "FLYRS1900": 81.0, "FLYRS1950": 60.0, "FLYRS1990": 20.0 }, "geometry": { "type": "Point", "coordinates": [ -108.467356400000014, 45.7999527799999 ] } },
{ "type": "Feature", "properties": { "STAID": "06216000", "STANAME": "Pryor Creek at Pryor MT", "CLASS": "Non-ref", "AGGECOREGI": "WestMnts", "DRAIN_SQKM": 304.9884, "HUC02": "10U", "LAT_GAGE": 45.434952, "LNG_GAGE": -108.534297, "STATE": "MT", "HCDN_2009": null, "ACTIVE09": "yes", "FLYRS1900": 42.0, "FLYRS1950": 42.0, "FLYRS1990": 20.0 }, "geometry": { "type": "Point", "coordinates": [ -108.5342975, 45.434952199999955 ] } },
{ "type": "Feature", "properties": { "STAID": "06216900", "STANAME": "Pryor Creek nr Huntley MT", "CLASS": "Non-ref", "AGGECOREGI": "WestPlains", "DRAIN_SQKM": 1486.666, "HUC02": "10U", "LAT_GAGE": 45.821899, "LNG_GAGE": -108.290407, "STATE": "MT", "HCDN_2009": null, "ACTIVE09": null, "FLYRS1900": 21.0, "FLYRS1950": 21.0, "FLYRS1990": 10.0 }, "geometry": { "type": "Point", "coordinates": [ -108.290407, 45.821899379999934 ] } },
{ "type": "Feature", "properties": { "STAID": "06278300", "STANAME": "SHELL CREEK ABOVE SHELL CREEK RESERVOIR, WY", "CLASS": "Ref", "AGGECOREGI": "WestMnts", "DRAIN_SQKM": 58.851, "HUC02": "10U", "LAT_GAGE": 44.50802, "LNG_GAGE": -107.403689, "STATE": "WY", "HCDN_2009": "yes", "ACTIVE09": "yes", "FLYRS1900": 53.0, "FLYRS1950": 53.0, "FLYRS1990": 20.0 }, "geometry": { "type": "Point", "coordinates": [ -107.403688550000012, 44.508019529999935 ] } },
{ "type": "Feature", "properties": { "STAID": "06278500", "STANAME": "SHELL CREEK NEAR SHELL, WY", "CLASS": "Non-ref", "AGGECOREGI": "WestMnts", "DRAIN_SQKM": 372.0735, "HUC02": "10U", "LAT_GAGE": 44.564961, "LNG_GAGE": -107.712867, "STATE": "WY", "HCDN_2009": null, "ACTIVE09": "yes", "FLYRS1900": 31.0, "FLYRS1950": 22.0, "FLYRS1990": 0.0 }, "geometry": { "type": "Point", "coordinates": [ -107.712866600000012, 44.564960969999888 ] } },
{ "type": "Feature", "properties": { "STAID": "06279500", "STANAME": "BIGHORN RIVER AT KANE, WY", "CLASS": "Non-ref", "AGGECOREGI": "WestXeric", "DRAIN_SQKM": 40824.87, "HUC02": "10U", "LAT_GAGE": 44.758566, "LNG_GAGE": -108.181497, "STATE": "WY", "HCDN_2009": null, "ACTIVE09": "yes", "FLYRS1900": 80.0, "FLYRS1950": 60.0, "FLYRS1990": 20.0 }, "geometry": { "type": "Point", "coordinates": [ -108.181497190000016, 44.758566179999946 ] } },
{ "type": "Feature", "properties": { "STAID": "06282000", "STANAME": "SHOSHONE RIVER BELOW BUFFALO BILL RESERVOIR, WY", "CLASS": "Non-ref", "AGGECOREGI": "WestMnts", "DRAIN_SQKM": 4001.216, "HUC02": "10U", "LAT_GAGE": 44.51662, "LNG_GAGE": -109.097922, "STATE": "WY", "HCDN_2009": null, "ACTIVE09": "yes", "FLYRS1900": 88.0, "FLYRS1950": 60.0, "FLYRS1990": 20.0 }, "geometry": { "type": "Point", "coordinates": [ -109.0979218, 44.516619619999922 ] } },
{ "type": "Feature", "properties": { "STAID": "06284400", "STANAME": "SHOSHONE RIVER NEAR GARLAND, WY", "CLASS": "Non-ref", "AGGECOREGI": "WestMnts", "DRAIN_SQKM": 5293.387, "HUC02": "10U", "LAT_GAGE": 44.738841, "LNG_GAGE": -108.594568, "STATE": "WY", "HCDN_2009": null, "ACTIVE09": null, "FLYRS1900": 21.0, "FLYRS1950": 21.0, "FLYRS1990": 0.0 }, "geometry": { "type": "Point", "coordinates": [ -108.59456791, 44.738841199999953 ] } },
{ "type": "Feature", "properties": { "STAID": "06284500", "STANAME": "BITTER CREEK NEAR GARLAND, WY", "CLASS": "Non-ref", "AGGECOREGI": "WestXeric", "DRAIN_SQKM": 184.6278, "HUC02": "10U", "LAT_GAGE": 44.753563, "LNG_GAGE": -108.592068, "STATE": "WY", "HCDN_2009": null, "ACTIVE09": null, "FLYRS1900": 24.0, "FLYRS1950": 24.0, "FLYRS1990": 0.0 }, "geometry": { "type": "Point", "coordinates": [ -108.592067930000013, 44.753563279999895 ] } },
{ "type": "Feature", "properties": { "STAID": "06284800", "STANAME": "WHISTLE CREEK NEAR GARLAND, WY", "CLASS": "Non-ref", "AGGECOREGI": "WestXeric", "DRAIN_SQKM": 247.4784, "HUC02": "10U", "LAT_GAGE": 44.722222, "LNG_GAGE": -108.58, "STATE": "WY", "HCDN_2009": null, "ACTIVE09": null, "FLYRS1900": 20.0, "FLYRS1950": 20.0, "FLYRS1990": 0.0 }, "geometry": { "type": "Point", "coordinates": [ -108.58, 44.722222219999878 ] } },
{ "type": "Feature", "properties": { "STAID": "06285100", "STANAME": "SHOSHONE RIVER NEAR LOVELL, WY", "CLASS": "Non-ref", "AGGECOREGI": "WestMnts", "DRAIN_SQKM": 6191.979, "HUC02": "10U", "LAT_GAGE": 44.838564, "LNG_GAGE": -108.435119, "STATE": "WY", "HCDN_2009": null, "ACTIVE09": "yes", "FLYRS1900": 43.0, "FLYRS1950": 43.0, "FLYRS1990": 20.0 }, "geometry": { "type": "Point", "coordinates": [ -108.435118640000013, 44.838563829999877 ] } },
{ "type": "Feature", "properties": { "STAID": "06285400", "STANAME": "SAGE CREEK AT SIDON CANAL, NEAR DEAVER, WY", "CLASS": "Non-ref", "AGGECOREGI": "WestXeric", "DRAIN_SQKM": 868.7592, "HUC02": "10U", "LAT_GAGE": 44.885507, "LNG_GAGE": -108.550957, "STATE": "WY", "HCDN_2009": null, "ACTIVE09": null, "FLYRS1900": 20.0, "FLYRS1950": 20.0, "FLYRS1990": 0.0 }, "geometry": { "type": "Point", "coordinates": [ -108.550957010000019, 44.885507229999952 ] } },
{ "type": "Feature", "properties": { "STAID": "06289000", "STANAME": "Little Bighorn River at State Line nr Wyola MT", "CLASS": "Ref", "AGGECOREGI": "WestMnts", "DRAIN_SQKM": 471.2687, "HUC02": "10U", "LAT_GAGE": 45.00691, "LNG_GAGE": -107.615095, "STATE": "MT", "HCDN_2009": "yes", "ACTIVE09": "yes", "FLYRS1900": 70.0, "FLYRS1950": 60.0, "FLYRS1990": 20.0 }, "geometry": { "type": "Point", "coordinates": [ -107.6150953, 45.0069097 ] } },
{ "type": "Feature", "properties": { "STAID": "06289600", "STANAME": "WEST PASS CREEK NEAR PARKMAN, WY", "CLASS": "Non-ref", "AGGECOREGI": "WestMnts", "DRAIN_SQKM": 41.7546, "HUC02": "10U", "LAT_GAGE": 44.987744, "LNG_GAGE": -107.482869, "STATE": "WY", "HCDN_2009": null, "ACTIVE09": "yes", "FLYRS1900": 24.0, "FLYRS1950": 24.0, "FLYRS1990": 20.0 }, "geometry": { "type": "Point", "coordinates": [ -107.4828685, 44.987744099999915 ] } },
{ "type": "Feature", "properties": { "STAID": "06289820", "STANAME": "EAST PASS CREEK NEAR DAYTON, WY", "CLASS": "Non-ref", "AGGECOREGI": "WestMnts", "DRAIN_SQKM": 58.8159, "HUC02": "10U", "LAT_GAGE": 44.990523, "LNG_GAGE": -107.422866, "STATE": "WY", "HCDN_2009": null, "ACTIVE09": "yes", "FLYRS1900": 27.0, "FLYRS1950": 27.0, "FLYRS1990": 20.0 }, "geometry": { "type": "Point", "coordinates": [ -107.422866450000015, 44.990522579999933 ] } },
{ "type": "Feature", "properties": { "STAID": "06290000", "STANAME": "Pass Creek near Wyola MT", "CLASS": "Non-ref", "AGGECOREGI": "WestPlains", "DRAIN_SQKM": 291.4353, "HUC02": "10U", "LAT_GAGE": 45.056356, "LNG_GAGE": -107.355921, "STATE": "MT", "HCDN_2009": null, "ACTIVE09": "yes", "FLYRS1900": 45.0, "FLYRS1950": 34.0, "FLYRS1990": 20.0 }, "geometry": { "type": "Point", "coordinates": [ -107.355921400000014, 45.056356099999931 ] } },
{ "type": "Feature", "properties": { "STAID": "06290500", "STANAME": "Little Bighorn R bl Pass Cr nr Wyola MT", "CLASS": "Non-ref", "AGGECOREGI": "WestPlains", "DRAIN_SQKM": 1103.66, "HUC02": "10U", "LAT_GAGE": 45.177188, "LNG_GAGE": -107.393981, "STATE": "MT", "HCDN_2009": null, "ACTIVE09": null, "FLYRS1900": 63.0, "FLYRS1950": 53.0, "FLYRS1990": 15.0 }, "geometry": { "type": "Point", "coordinates": [ -107.3939813, 45.177188099999931 ] } },
{ "type": "Feature", "properties": { "STAID": "06291500", "STANAME": "Lodge Grass Cr ab Willow C Div nr Wyola MT", "CLASS": "Ref", "AGGECOREGI": "WestPlains", "DRAIN_SQKM": 217.9557, "HUC02": "10U", "LAT_GAGE": 45.126445, "LNG_GAGE": -107.600545, "STATE": "MT", "HCDN_2009": "yes", "ACTIVE09": "yes", "FLYRS1900": 62.0, "FLYRS1950": 52.0, "FLYRS1990": 20.0 }, "geometry": { "type": "Point", "coordinates": [ -107.60054476000002, 45.126444679999956 ] } },
{ "type": "Feature", "properties": { "STAID": "06294000", "STANAME": "Little Bighorn River near Hardin MT", "CLASS": "Non-ref", "AGGECOREGI": "WestPlains", "DRAIN_SQKM": 3346.744, "HUC02": "10U", "LAT_GAGE": 45.735812, "LNG_GAGE": -107.557305, "STATE": "MT", "HCDN_2009": null, "ACTIVE09": "yes", "FLYRS1900": 56.0, "FLYRS1950": 56.0, "FLYRS1990": 20.0 }, "geometry": { "type": "Point", "coordinates": [ -107.557305, 45.735812199999948 ] } },
{ "type": "Feature", "properties": { "STAID": "06295113", "STANAME": "Rosebud C at Reservation Bndry nr Kirby MT", "CLASS": "Non-ref", "AGGECOREGI": "WestPlains", "DRAIN_SQKM": 319.7511, "HUC02": "10U", "LAT_GAGE": 45.361089, "LNG_GAGE": -106.990342, "STATE": "MT", "HCDN_2009": null, "ACTIVE09": "yes", "FLYRS1900": 30.0, "FLYRS1950": 30.0, "FLYRS1990": 20.0 }, "geometry": { "type": "Point", "coordinates": [ -106.990341700000016, 45.361088599999924 ] } },
{ "type": "Feature", "properties": { "STAID": "06295250", "STANAME": "Rosebud Creek near Colstrip MT", "CLASS": "Ref", "AGGECOREGI": "WestPlains", "DRAIN_SQKM": 2071.243, "HUC02": "10U", "LAT_GAGE": 45.767496, "LNG_GAGE": -106.570021, "STATE": "MT", "HCDN_2009": null, "ACTIVE09": null, "FLYRS1900": 32.0, "FLYRS1950": 32.0, "FLYRS1990": 17.0 }, "geometry": { "type": "Point", "coordinates": [ -106.570021100000019, 45.7674963899999 ] } },
{ "type": "Feature", "properties": { "STAID": "06296003", "STANAME": "Rosebud Creek at mouth near Rosebud MT", "CLASS": "Non-ref", "AGGECOREGI": "WestPlains", "DRAIN_SQKM": 3373.865, "HUC02": "10U", "LAT_GAGE": 46.26472, "LNG_GAGE": -106.475581, "STATE": "MT", "HCDN_2009": null, "ACTIVE09": null, "FLYRS1900": 32.0, "FLYRS1950": 32.0, "FLYRS1990": 17.0 }, "geometry": { "type": "Point", "coordinates": [ -106.475580600000015, 46.264719699999972 ] } },
{ "type": "Feature", "properties": { "STAID": "06297000", "STANAME": "SOUTH FORK TONGUE RIVER NEAR DAYTON, WY", "CLASS": "Ref", "AGGECOREGI": "WestMnts", "DRAIN_SQKM": 214.3278, "HUC02": "10U", "LAT_GAGE": 44.783853, "LNG_GAGE": -107.470085, "STATE": "WY", "HCDN_2009": null, "ACTIVE09": null, "FLYRS1900": 26.0, "FLYRS1950": 22.0, "FLYRS1990": 0.0 }, "geometry": { "type": "Point", "coordinates": [ -107.470085420000018, 44.783853339999901 ] } },
{ "type": "Feature", "properties": { "STAID": "06298000", "STANAME": "TONGUE RIVER NEAR DAYTON, WY", "CLASS": "Non-ref", "AGGECOREGI": "WestMnts", "DRAIN_SQKM": 533.6174, "HUC02": "10U", "LAT_GAGE": 44.849412, "LNG_GAGE": -107.304525, "STATE": "WY", "HCDN_2009": null, "ACTIVE09": "yes", "FLYRS1900": 78.0, "FLYRS1950": 60.0, "FLYRS1990": 20.0 }, "geometry": { "type": "Point", "coordinates": [ -107.304525310000017, 44.849412329999936 ] } },